
[
  {
    "name": "Adkins Andrew Jackson",
    "img": "https://www.homefacts.com/images/offenders/tennessee/thumb/00415654.jpg",
    "address": "800 MARKET STR STE 320",
    "locality": "KNOXVILLE",
    "lat": 35.9620244,
    "lng": -83.9170743
  },
  {
    "name": "Adkins Danny Roger",
    "img": "https://www.homefacts.com/images/offenders/tennessee/thumb/00132671.jpg",
    "address": "8414 PARKER RD",
    "locality": "CORRYTON",
    "lat": 36.1674592,
    "lng": -83.852402
  },
  {
    "name": "Adkins Nicholas Ferrit",
    "img": "https://www.homefacts.com/images/offenders/tennessee/thumb/00493185.jpg",
    "address": "8612 PEPPERTREE LANE",
    "locality": "KNOXVILLE",
    "lat": 35.93514529999999,
    "lng": -84.0727947
  },
  {
    "name": "Akers Karri Lynn",
    "img": "https://www.homefacts.com/images/offenders/tennessee/thumb/00472621.jpg",
    "address": "4916 HOLSTON DRIVE",
    "locality": "KNOXVILLE",
    "lat": 36.0034141,
    "lng": -83.852003
  },
  {
    "name": "Allen Mark David",
    "img": "https://www.homefacts.com/images/offenders/tennessee/thumb/00577248.jpg",
    "address": "7901 COUNTRY SCENE ROAD",
    "locality": "KNOXVILLE",
    "lat": 36.0900976,
    "lng": -83.956621
  },
  {
    "name": "Allum Bryan Charles",
    "img": "https://www.homefacts.com/images/offenders/tennessee/thumb/00616003.jpg",
    "address": "8240 HUNTERHILL DR",
    "locality": "KNOXVILLE",
    "lat": 35.9457994,
    "lng": -84.06034470000002
  },
  {
    "name": "Almond Robert",
    "img": "https://www.homefacts.com/images/offenders/tennessee/thumb/00229258.jpg",
    "address": "2512 WOODS SMITH RD",
    "locality": "KNOXVILLE",
    "lat": 35.9788181,
    "lng": -84.03369769999999
  },
  {
    "name": "Alsante James John",
    "img": "https://www.homefacts.com/images/offenders/tennessee/thumb/00562479.jpg",
    "address": "800 MARKET ST 320",
    "locality": "KNOXVILLE",
    "lat": 35.9620244,
    "lng": -83.9170743
  },
  {
    "name": "Anderson David Robert",
    "img": "https://www.homefacts.com/images/offenders/tennessee/thumb/00379904.jpg",
    "address": "5005 BUFFAT MILL RD",
    "locality": "KNOXVILLE",
    "lat": 36.02631640000001,
    "lng": -83.8688098
  },
  {
    "name": "Anderson Timothy",
    "img": "https://www.homefacts.com/images/offenders/tennessee/thumb/00008917.jpg",
    "address": "604 TIPTON STATION ROAD",
    "locality": "KNOXVILLE",
    "lat": 35.8920846,
    "lng": -83.84130929999999
  },
  {
    "name": "Andres Samuel Miguel",
    "img": "https://www.homefacts.com/images/offenders/tennessee/thumb/00527300.jpg",
    "address": "6320 CLINTON HIGHWAY LOT 18",
    "locality": "KNOXVILLE",
    "lat": 36.0105773,
    "lng": -84.0047206
  },
  {
    "name": "Angvick Larry",
    "img": "https://www.homefacts.com/images/offenders/tennessee/thumb/00470185.jpg",
    "address": "2245 QUAIL HOLLOW RD",
    "locality": "KNOXVILLE",
    "lat": 35.9601701,
    "lng": -84.05451819999999
  },
  {
    "name": "Armstrong Zackery A",
    "img": "https://www.homefacts.com/images/offenders/tennessee/thumb/00510028.jpg",
    "address": "800 TREETRUNK RD",
    "locality": "KNOXVILLE",
    "lat": 35.8778449,
    "lng": -84.12743189999999
  },
  {
    "name": "Arnold Christopher William",
    "img": "https://www.homefacts.com/images/offenders/tennessee/thumb/00499150.jpg",
    "address": "122 TORI KAIT LANE",
    "locality": "POWELL",
    "lat": 36.0396413,
    "lng": -84.1175397
  },
  {
    "name": "Arnott Steven Lee",
    "img": "https://www.homefacts.com/images/offenders/tennessee/thumb/00577078.jpg",
    "address": "5001 MALONEYVILLE ROAD",
    "locality": "KNOXVILLE",
    "lat": 36.0853331,
    "lng": -83.84035039999999
  },
  {
    "name": "Arp Wesley Aaron",
    "img": "https://www.homefacts.com/images/offenders/tennessee/thumb/00581586.jpg",
    "address": "8235 GODDARD LANE",
    "locality": "KNOXVILLE",
    "lat": 35.8643285,
    "lng": -83.8989394
  },
  {
    "name": "Attaway William Dean",
    "img": "https://www.homefacts.com/images/offenders/tennessee/thumb/00319766.jpg",
    "address": "719 MURRAY DR 4",
    "locality": "KNOXVILLE",
    "lat": 36.012148,
    "lng": -83.99512829999999
  },
  {
    "name": "Baloga Jonathon Colby",
    "img": "https://www.homefacts.com/images/offenders/tennessee/thumb/00601214.jpg",
    "address": "535 MEHAFFEY ROAD",
    "locality": "POWELL",
    "lat": 36.0238997,
    "lng": -84.1055684
  },
  {
    "name": "Barcus Trevon Scott",
    "img": "https://www.homefacts.com/images/offenders/tennessee/thumb/00481058.jpg",
    "address": "homeless",
    "locality": "KNOXVILLE",
    "lat": 35.965266,
    "lng": -83.923304
  },
  {
    "name": "Barnes Dustin Lambert",
    "img": "https://www.homefacts.com/images/offenders/tennessee/thumb/00479386.jpg",
    "address": "05001 MALONEYVILLE RD",
    "locality": "KNOXVILLE",
    "lat": 36.0841221,
    "lng": -83.84094809999999
  },
  {
    "name": "Bates Miciah Darnell",
    "img": "https://www.homefacts.com/images/offenders/tennessee/thumb/00560901.jpg",
    "address": "1500 CHERRY ST 208",
    "locality": "KNOXVILLE",
    "lat": 35.9934504,
    "lng": -83.9007496
  },
  {
    "name": "Batiste Gilbert",
    "img": "https://www.homefacts.com/images/offenders/tennessee/thumb/SO003302.jpg",
    "address": "1904 DUTCH VALLEY DR 7",
    "locality": "KNOXVILLE",
    "lat": 36.0130629,
    "lng": -83.9354
  },
  {
    "name": "Battle Sue Yong",
    "img": "https://www.homefacts.com/images/offenders/tennessee/thumb/00646595.jpg",
    "address": "5800 CENTRAL AVE PK APT 1302",
    "locality": "KNOXVILLE",
    "lat": 36.0191309,
    "lng": -83.9775442
  },
  {
    "name": "Beachy Lelan E",
    "img": "https://www.homefacts.com/images/offenders/tennessee/thumb/SO019116.jpg",
    "address": "6854 MUNDAL RD",
    "locality": "KNOXVILLE",
    "lat": 36.0353384,
    "lng": -83.9866716
  },
  {
    "name": "Beaty Paul Lafayette",
    "img": "https://www.homefacts.com/images/offenders/tennessee/thumb/00284776.jpg",
    "address": "8617 THREE POINTS RD",
    "locality": "KNOXVILLE",
    "lat": 36.0682201,
    "lng": -83.7755944
  },
  {
    "name": "Bedwell Eric James",
    "img": "https://www.homefacts.com/images/offenders/tennessee/thumb/00610911.jpg",
    "address": "1349 MASSACHUETTS AVE",
    "locality": "KNOXVILLE",
    "lat": 35.9803613,
    "lng": -83.9506615
  },
  {
    "name": "Beets Daniel",
    "img": "https://www.homefacts.com/images/offenders/tennessee/thumb/00634416.jpg",
    "address": "7617 MILLERTOWN PIKE",
    "locality": "KNOXVILLE",
    "lat": 36.0569291,
    "lng": -83.8196961
  },
  {
    "name": "Belew Michael Edward",
    "img": "https://www.homefacts.com/images/offenders/tennessee/thumb/00527624.jpg",
    "address": "9938 HUMMINGBIRD LANE",
    "locality": "KNOXVILLE",
    "lat": 35.9345547,
    "lng": -84.1217573
  },
  {
    "name": "Bell Allen Wayne",
    "img": "https://www.homefacts.com/images/offenders/tennessee/thumb/00280320.jpg",
    "address": "1013 GLIDER AVE",
    "locality": "KNOXVILLE",
    "lat": 35.989077,
    "lng": -83.9087867
  },
  {
    "name": "Bemley Juan Rodrico",
    "img": "https://www.homefacts.com/images/offenders/tennessee/thumb/00203459.jpg",
    "address": "homeless",
    "locality": "KNOXVILLE",
    "lat": 35.965266,
    "lng": -83.923304
  },
  {
    "name": "Bennefield Ricky James",
    "img": "https://www.homefacts.com/images/offenders/tennessee/thumb/00588325.jpg",
    "address": "800 MARKET STREET",
    "locality": "KNOXVILLE",
    "lat": 35.9620244,
    "lng": -83.9170743
  },
  {
    "name": "Bennett Anthony Roy",
    "img": "https://www.homefacts.com/images/offenders/tennessee/thumb/00659807.jpg",
    "address": "5001 MALONEYVILLE RD",
    "locality": "KNOXVILLE",
    "lat": 36.0853331,
    "lng": -83.84035039999999
  },
  {
    "name": "Bennett Steve D",
    "img": "https://www.homefacts.com/images/offenders/tennessee/thumb/00097746.jpg",
    "address": "4628 CHEROKEE DR",
    "locality": "STRAWBERRY PLAINS",
    "lat": 36.0173181,
    "lng": -83.6640025
  },
  {
    "name": "Berrier Ricky Glenn",
    "img": "https://www.homefacts.com/images/offenders/tennessee/thumb/00485077.jpg",
    "address": "2100 N PARK BLVD",
    "locality": "KNOXVILLE",
    "lat": 36.0025776,
    "lng": -83.89765059999999
  },
  {
    "name": "Best Kenneth Duane",
    "img": "https://www.homefacts.com/images/offenders/tennessee/thumb/00536668.jpg",
    "address": "9107 PICKENS GAP RD",
    "locality": "KNOXVILLE",
    "lat": 35.8740378,
    "lng": -83.8163592
  },
  {
    "name": "Bibbs Maurice Lamar",
    "img": "https://www.homefacts.com/images/offenders/tennessee/thumb/SO019699.jpg",
    "address": "4702 FOREST LANDING WAY 21",
    "locality": "KNOXVILLE",
    "lat": 36.0263245,
    "lng": -83.9183949
  },
  {
    "name": "Bishop Jeffrey Shaun",
    "img": "https://www.homefacts.com/images/offenders/tennessee/thumb/00449182.jpg",
    "address": "328 S CARTER SCHOOL RD",
    "locality": "STRAWBERRY PLAINS",
    "lat": 36.0177371,
    "lng": -83.7064298
  },
  {
    "name": "Bishop Steven Lee",
    "img": "https://www.homefacts.com/images/offenders/tennessee/thumb/00355771.jpg",
    "address": "5001 MALONEYVILLE ROAD",
    "locality": "KNOXVILLE",
    "lat": 36.0853331,
    "lng": -83.84035039999999
  },
  {
    "name": "Blackwell Timothy Neil",
    "img": "https://www.homefacts.com/images/offenders/tennessee/thumb/00323823.jpg",
    "address": "1805 SAYLORS FORD ROAD",
    "locality": "MASCOT",
    "lat": 36.0624815,
    "lng": -83.73544679999999
  },
  {
    "name": "Blakeney Wesley Taverus",
    "img": "https://www.homefacts.com/images/offenders/tennessee/thumb/SO015514.jpg",
    "address": "7600 LONGSHOT LANE",
    "locality": "KNOXVILLE",
    "lat": 36.0451124,
    "lng": -83.9967161
  },
  {
    "name": "Bloor Michael Scott",
    "img": "https://www.homefacts.com/images/offenders/tennessee/thumb/SO009463.jpg",
    "address": "790 ASHEVILLE HWY LOT 10",
    "locality": "STRAWBERRY PLAINS",
    "lat": 36.02091619999999,
    "lng": -83.6522719
  },
  {
    "name": "Blouvet Corry Monroe",
    "img": "https://www.homefacts.com/images/offenders/tennessee/thumb/00099217.jpg",
    "address": "1901 BROWN AVE",
    "locality": "KNOXVILLE",
    "lat": 35.9927933,
    "lng": -83.91336059999999
  },
  {
    "name": "Boden Raymond Walter",
    "img": "https://www.homefacts.com/images/offenders/tennessee/thumb/SO016230.jpg",
    "address": "8316 OLD MAYNARDVILLE PIKE",
    "locality": "KNOXVILLE",
    "lat": 36.1238933,
    "lng": -83.9136286
  },
  {
    "name": "Bond Scott Edward",
    "img": "https://www.homefacts.com/images/offenders/tennessee/thumb/00528316.jpg",
    "address": "5001 MALONEYVILLE ROAD",
    "locality": "KNOXVILLE",
    "lat": 36.0853331,
    "lng": -83.84035039999999
  },
  {
    "name": "Boutchiche Mustapha",
    "img": "https://www.homefacts.com/images/offenders/tennessee/thumb/00405974.jpg",
    "address": "2928 SUTHERLAND AVENUE",
    "locality": "KNOXVILLE",
    "lat": 35.952955,
    "lng": -83.9638823
  },
  {
    "name": "Bowman Dewayne Eugene",
    "img": "https://www.homefacts.com/images/offenders/tennessee/thumb/00565731.jpg",
    "address": "5001 MALONEYVILLE RD",
    "locality": "KNOXVILLE",
    "lat": 36.0853331,
    "lng": -83.84035039999999
  },
  {
    "name": "Boyd John Perry",
    "img": "https://www.homefacts.com/images/offenders/tennessee/thumb/00592626.jpg",
    "address": "2315 PIEDMONT ST",
    "locality": "KNOXVILLE",
    "lat": 35.9691041,
    "lng": -83.97104999999999
  },
  {
    "name": "Boyer Nicholas Terry",
    "img": "https://www.homefacts.com/images/offenders/tennessee/thumb/SO003567.jpg",
    "address": "homeless",
    "locality": "KNOXVILLE",
    "lat": 35.965266,
    "lng": -83.923304
  },
  {
    "name": "Bradley Clifford Gene",
    "img": "https://www.homefacts.com/images/offenders/tennessee/thumb/00134163.jpg",
    "address": "1701 E MAGNOLIA AVE",
    "locality": "KNOXVILLE",
    "lat": 35.9791048,
    "lng": -83.9077724
  },
  {
    "name": "Bradley Larry Wayne",
    "img": "https://www.homefacts.com/images/offenders/tennessee/thumb/00125806.jpg",
    "address": "6111 ATKINS RD",
    "locality": "KNOXVILLE",
    "lat": 36.0848831,
    "lng": -83.8799373
  },
  {
    "name": "Branch Wesley",
    "img": "https://www.homefacts.com/images/offenders/tennessee/thumb/SO018683.jpg",
    "address": "homeless",
    "locality": "KNOXVILLE",
    "lat": 35.965266,
    "lng": -83.923304
  },
  {
    "name": "Breeden Danny Wayne",
    "img": "https://www.homefacts.com/images/offenders/tennessee/thumb/00617246.jpg",
    "address": "6508 PENNY LN",
    "locality": "KNOXVILLE",
    "lat": 36.0543293,
    "lng": -83.9409398
  },
  {
    "name": "Breeden Derrick Earl",
    "img": "https://www.homefacts.com/images/offenders/tennessee/thumb/SO017629.jpg",
    "address": "5725 DAVIDA ROAD",
    "locality": "KNOXVILLE",
    "lat": 36.0114356,
    "lng": -83.9822028
  },
  {
    "name": "Bressette Leroy Thomas",
    "img": "https://www.homefacts.com/images/offenders/tennessee/thumb/SO003575.jpg",
    "address": "1729 CAPE BRITTANY WAY",
    "locality": "KNOXVILLE",
    "lat": 35.9378601,
    "lng": -84.13837629999999
  },
  {
    "name": "Brewer Jesse E",
    "img": "https://www.homefacts.com/images/offenders/tennessee/thumb/00224396.jpg",
    "address": "1800 RICKETTS LN",
    "locality": "KNOXVILLE",
    "lat": 35.9099362,
    "lng": -84.2090023
  },
  {
    "name": "Bright David Alan",
    "img": "https://www.homefacts.com/images/offenders/tennessee/thumb/00565318.jpg",
    "address": "2008 HYDE PARK LANE",
    "locality": "KNOXVILLE",
    "lat": 35.9676652,
    "lng": -84.0292252
  },
  {
    "name": "Brogdon Jack",
    "img": "https://www.homefacts.com/images/offenders/tennessee/thumb/00099596.jpg",
    "address": "5918 CLINTON HWY  LOT 38",
    "locality": "KNOXVILLE",
    "lat": 36.0086035,
    "lng": -83.9913416
  },
  {
    "name": "Brooks Richard D",
    "img": "https://www.homefacts.com/images/offenders/tennessee/thumb/00443170.jpg",
    "address": "1200 COOPER RD",
    "locality": "STRAWBERRY PLAINS",
    "lat": 36.0028088,
    "lng": -83.7198824
  },
  {
    "name": "Brown Brandy Lee",
    "img": "https://www.homefacts.com/images/offenders/tennessee/thumb/00582821.jpg",
    "address": "2751 W HIGHWAY 11E",
    "locality": "STRAWBERRY PLAINS",
    "lat": 36.0653325,
    "lng": -83.67289610000002
  },
  {
    "name": "Brown Eric Ray",
    "img": "https://www.homefacts.com/images/offenders/tennessee/thumb/00532022.jpg",
    "address": "7128 CLINTON HWY APT 7",
    "locality": "POWELL",
    "lat": 36.0152897,
    "lng": -84.037419
  },
  {
    "name": "Brown Joseph P",
    "img": "https://www.homefacts.com/images/offenders/tennessee/thumb/00479913.jpg",
    "address": "412 WATAUGA DRIVE APT 9",
    "locality": "KNOXVILLE",
    "lat": 36.0449408,
    "lng": -83.924495
  },
  {
    "name": "Brown Larry Fitzgerald",
    "img": "https://www.homefacts.com/images/offenders/tennessee/thumb/00562043.jpg",
    "address": "homeless",
    "locality": "KNOXVILLE",
    "lat": 35.965266,
    "lng": -83.923304
  },
  {
    "name": "Brown Zachariah Lee",
    "img": "https://www.homefacts.com/images/offenders/tennessee/thumb/00616269.jpg",
    "address": "1804 WINTERGREEN CIRCLE",
    "locality": "KNOXVILLE",
    "lat": 36.0042501,
    "lng": -83.99049939999999
  },
  {
    "name": "Buffington Anthony Douglas",
    "img": "https://www.homefacts.com/images/offenders/tennessee/thumb/00662418.jpg",
    "address": "904 VIEW HARBOUR ROAD",
    "locality": "KNOXVILLE",
    "lat": 35.872677,
    "lng": -84.13102789999999
  },
  {
    "name": "Burgess Theresa Diane",
    "img": "https://www.homefacts.com/images/offenders/tennessee/thumb/00500525.jpg",
    "address": "1500 Cherry St Apt 310",
    "locality": "KNOXVILLE",
    "lat": 35.9934504,
    "lng": -83.9007496
  },
  {
    "name": "Burgins Jamar Leshawn",
    "img": "https://www.homefacts.com/images/offenders/tennessee/thumb/00344440.jpg",
    "address": "5001 MALONEYVILLE ROAD",
    "locality": "KNOXVILLE",
    "lat": 36.0853331,
    "lng": -83.84035039999999
  },
  {
    "name": "Burkhart Shannon Lynn",
    "img": "https://www.homefacts.com/images/offenders/tennessee/thumb/00370771.jpg",
    "address": "8512 OLD RUTLEDGE PIKE",
    "locality": "KNOXVILLE",
    "lat": 36.0632738,
    "lng": -83.7797898
  },
  {
    "name": "Burton Vincent",
    "img": "https://www.homefacts.com/images/offenders/tennessee/thumb/00536553.jpg",
    "address": "719 MURRAY DR APT 1",
    "locality": "KNOXVILLE",
    "lat": 36.0122252,
    "lng": -83.99499460000001
  },
  {
    "name": "Busler Lydia Ann",
    "img": "https://www.homefacts.com/images/offenders/tennessee/thumb/00481213.jpg",
    "address": "4308 BOUNDS ROAD H",
    "locality": "KNOXVILLE",
    "lat": 36.0021778,
    "lng": -83.9632599
  },
  {
    "name": "Byers Trever Alan",
    "img": "https://www.homefacts.com/images/offenders/tennessee/thumb/00142195.jpg",
    "address": "7744 ASHLEY ROAD",
    "locality": "POWELL",
    "lat": 36.0338945,
    "lng": -84.04099819999999
  },
  {
    "name": "Byrd James Anthony",
    "img": "https://www.homefacts.com/images/offenders/tennessee/thumb/00565051.jpg",
    "address": "1708 UPPINGHAM RD",
    "locality": "KNOXVILLE",
    "lat": 36.0335398,
    "lng": -83.9545074
  },
  {
    "name": "Cain Marvin L",
    "img": "https://www.homefacts.com/images/offenders/tennessee/thumb/00588503.jpg",
    "address": "317 TIPTON STATION RD",
    "locality": "KNOXVILLE",
    "lat": 35.89724,
    "lng": -83.8343963
  },
  {
    "name": "Canales Mainor Celin",
    "img": "https://www.homefacts.com/images/offenders/tennessee/thumb/00564184.jpg",
    "address": "DEPORTED",
    "locality": "KNOXVILLE",
    "lat": 35.965266,
    "lng": -83.923304
  },
  {
    "name": "Carpenter Jason Christopher",
    "img": "https://www.homefacts.com/images/offenders/tennessee/thumb/00401575.jpg",
    "address": "homeless",
    "locality": "KNOXVILLE",
    "lat": 35.965266,
    "lng": -83.923304
  },
  {
    "name": "Carter Dwayne Tashaun",
    "img": "https://www.homefacts.com/images/offenders/tennessee/thumb/00590791.jpg",
    "address": "2985 HODGESWITCH ROAD",
    "locality": "STRAWBERRY PLAINS",
    "lat": 36.06314140000001,
    "lng": -83.6860109
  },
  {
    "name": "Carter Gerald",
    "img": "https://www.homefacts.com/images/offenders/tennessee/thumb/00628806.jpg",
    "address": "7606 RACING RUN RD",
    "locality": "KNOXVILLE",
    "lat": 35.8854485,
    "lng": -83.89026899999999
  },
  {
    "name": "Carter Michael Joseph",
    "img": "https://www.homefacts.com/images/offenders/tennessee/thumb/00627138.jpg",
    "address": "2438 MINE RD",
    "locality": "MASCOT",
    "lat": 36.0770686,
    "lng": -83.7427435
  },
  {
    "name": "Casas Iraim",
    "img": "https://www.homefacts.com/images/offenders/tennessee/thumb/SO018258.jpg",
    "address": "10213 THORNGROVE PIKE",
    "locality": "STRAWBERRY PLAINS",
    "lat": 36.0063775,
    "lng": -83.6858536
  },
  {
    "name": "Casey John Kenneth",
    "img": "https://www.homefacts.com/images/offenders/tennessee/thumb/00623812.jpg",
    "address": "3009 GINNBROOK ROAD",
    "locality": "KNOXVILLE",
    "lat": 35.9083033,
    "lng": -83.9571193
  },
  {
    "name": "Cash Kevin Randall",
    "img": "https://www.homefacts.com/images/offenders/tennessee/thumb/00407409.jpg",
    "address": "2919 NORTHWEST PARK DR",
    "locality": "KNOXVILLE",
    "lat": 36.004304,
    "lng": -84.0281881
  },
  {
    "name": "Cassidy Floyd Randall",
    "img": "https://www.homefacts.com/images/offenders/tennessee/thumb/00357463.jpg",
    "address": "4670 DOUGLAS DAM RD",
    "locality": "STRAWBERRY PLAINS",
    "lat": 36.0184888,
    "lng": -83.636595
  },
  {
    "name": "Cates Corteland Keshira",
    "img": "https://www.homefacts.com/images/offenders/tennessee/thumb/00264708.jpg",
    "address": "2001 CHICAGO AVE",
    "locality": "KNOXVILLE",
    "lat": 35.9963525,
    "lng": -83.9150274
  },
  {
    "name": "Cates Cumecus R",
    "img": "https://www.homefacts.com/images/offenders/tennessee/thumb/00308021.jpg",
    "address": "5001 MALONEYVILLE RD",
    "locality": "KNOXVILLE",
    "lat": 36.0853331,
    "lng": -83.84035039999999
  },
  {
    "name": "Chapman Brian Edward",
    "img": "https://www.homefacts.com/images/offenders/tennessee/thumb/00327451.jpg",
    "address": "302 DENNIS LANE",
    "locality": "POWELL",
    "lat": 36.0323151,
    "lng": -84.07100969999999
  },
  {
    "name": "Chase James Edward",
    "img": "https://www.homefacts.com/images/offenders/tennessee/thumb/00646685.jpg",
    "address": "1500 N CHERRY ST RM 327",
    "locality": "KNOXVILLE",
    "lat": 35.9934504,
    "lng": -83.9007496
  },
  {
    "name": "Chiarovano Paul Gabriel",
    "img": "https://www.homefacts.com/images/offenders/tennessee/thumb/00456393.jpg",
    "address": "800 MARKET ST SUITE 203107 USM",
    "locality": "KNOXVILLE",
    "lat": 36.316233,
    "lng": -82.3708709
  },
  {
    "name": "Childress David Lewis",
    "img": "https://www.homefacts.com/images/offenders/tennessee/thumb/00112122.jpg",
    "address": "4400 GREENLY FORD RD",
    "locality": "KNOXVILLE",
    "lat": 35.9281462,
    "lng": -83.9286283
  },
  {
    "name": "Chilton Jerry Lee",
    "img": "https://www.homefacts.com/images/offenders/tennessee/thumb/00105810.jpg",
    "address": "homeless",
    "locality": "KNOXVILLE",
    "lat": 35.965266,
    "lng": -83.923304
  },
  {
    "name": "Clark William Michael",
    "img": "https://www.homefacts.com/images/offenders/tennessee/thumb/00416066.jpg",
    "address": "7128 CLINTON HWY APT 15",
    "locality": "POWELL",
    "lat": 36.0151264,
    "lng": -84.03817749999999
  },
  {
    "name": "Clark Wilson Reese",
    "img": "https://www.homefacts.com/images/offenders/tennessee/thumb/SO018924.jpg",
    "address": "homeless",
    "locality": "KNOXVILLE",
    "lat": 35.965266,
    "lng": -83.923304
  },
  {
    "name": "Clarke Darin Vaughn",
    "img": "https://www.homefacts.com/images/offenders/tennessee/thumb/00565181.jpg",
    "address": "2101 NICKERSON AVE",
    "locality": "KNOXVILLE",
    "lat": 36.0042672,
    "lng": -83.9190019
  },
  {
    "name": "Clarkson Gary Wayne",
    "img": "https://www.homefacts.com/images/offenders/tennessee/thumb/00161643.jpg",
    "address": "1809 FENWOOD DRIVE",
    "locality": "KNOXVILLE",
    "lat": 36.0341386,
    "lng": -83.9487192
  },
  {
    "name": "Cleveland Scott",
    "img": "https://www.homefacts.com/images/offenders/tennessee/thumb/SO019179.jpg",
    "address": "homeless",
    "locality": "KNOXVILLE",
    "lat": 35.965266,
    "lng": -83.923304
  },
  {
    "name": "Clifton Marshall Leon",
    "img": "https://www.homefacts.com/images/offenders/tennessee/thumb/SO000080.jpg",
    "address": "7243 THORNBROOK LN",
    "locality": "POWELL",
    "lat": 36.0313701,
    "lng": -84.00994109999999
  },
  {
    "name": "Cline Richard",
    "img": "https://www.homefacts.com/images/offenders/tennessee/thumb/00638937.jpg",
    "address": "7525 CROSSWOOD BLVD 233",
    "locality": "KNOXVILLE",
    "lat": 36.0041255,
    "lng": -83.7781816
  },
  {
    "name": "Clinkscale Henry Eugene",
    "img": "https://www.homefacts.com/images/offenders/tennessee/thumb/00091629.jpg",
    "address": "homeless",
    "locality": "KNOXVILLE",
    "lat": 35.965266,
    "lng": -83.923304
  },
  {
    "name": "Clodfelder Jason Eric",
    "img": "https://www.homefacts.com/images/offenders/tennessee/thumb/00612334.jpg",
    "address": "homeless",
    "locality": "KNOXVILLE",
    "lat": 35.965266,
    "lng": -83.923304
  },
  {
    "name": "Cochran David L.",
    "img": "https://www.homefacts.com/images/offenders/tennessee/thumb/00158167.jpg",
    "address": "5001 MALONEYVILLE RD",
    "locality": "KNOXVILLE",
    "lat": 36.0853331,
    "lng": -83.84035039999999
  },
  {
    "name": "Cody-miles Jacquez Dewon",
    "img": "https://www.homefacts.com/images/offenders/tennessee/thumb/SO019479.jpg",
    "address": "6300 ASHEVILLE HWY 354",
    "locality": "KNOXVILLE",
    "lat": 36.01678440000001,
    "lng": -83.8236359
  },
  {
    "name": "Coke Dwayne Howard",
    "img": "https://www.homefacts.com/images/offenders/tennessee/thumb/00500253.jpg",
    "address": "12113 E ASHTON COURT",
    "locality": "KNOXVILLE",
    "lat": 35.8842243,
    "lng": -84.2018216
  },
  {
    "name": "Cole Hunter Zane",
    "img": "https://www.homefacts.com/images/offenders/tennessee/thumb/00664480.jpg",
    "address": "7921 MICAH DR",
    "locality": "KNOXVILLE",
    "lat": 36.102184,
    "lng": -83.9345269
  },
  {
    "name": "Cole James Dewayne",
    "img": "https://www.homefacts.com/images/offenders/tennessee/thumb/00660045.jpg",
    "address": "homeless",
    "locality": "KNOXVILLE",
    "lat": 35.965266,
    "lng": -83.923304
  },
  {
    "name": "Coleman Don Allen",
    "img": "https://www.homefacts.com/images/offenders/tennessee/thumb/00296977.jpg",
    "address": "848 BAYS MOUNTAIN DRIVE",
    "locality": "KNOXVILLE",
    "lat": 35.9066216,
    "lng": -83.786335
  },
  {
    "name": "Collins Chris Dean",
    "img": "https://www.homefacts.com/images/offenders/tennessee/thumb/00354282.jpg",
    "address": "8618 CURTIS RD",
    "locality": "KNOXVILLE",
    "lat": 35.9745871,
    "lng": -83.7093265
  },
  {
    "name": "Collins Houston James",
    "img": "https://www.homefacts.com/images/offenders/tennessee/thumb/00451008.jpg",
    "address": "4645 HUFFACRE LANE",
    "locality": "STRAWBERRY PLAINS",
    "lat": 36.0205465,
    "lng": -83.6487087
  },
  {
    "name": "Collins Thomas W",
    "img": "https://www.homefacts.com/images/offenders/tennessee/thumb/00544412.jpg",
    "address": "5820 OLD RUTLEDGE PIKE",
    "locality": "KNOXVILLE",
    "lat": 36.0248287,
    "lng": -83.8464814
  },
  {
    "name": "Colorusso Joseph",
    "img": "https://www.homefacts.com/images/offenders/tennessee/thumb/00589320.jpg",
    "address": "7721 EMORY RD",
    "locality": "CORRYTON",
    "lat": 36.1246622,
    "lng": -83.84171500000001
  },
  {
    "name": "Combs Mark Allen",
    "img": "https://www.homefacts.com/images/offenders/tennessee/thumb/SO019336.jpg",
    "address": "2519 RIFLE RANGE RD",
    "locality": "KNOXVILLE",
    "lat": 36.0477547,
    "lng": -83.9448101
  },
  {
    "name": "Comer Stacey",
    "img": "https://www.homefacts.com/images/offenders/tennessee/thumb/00630114.jpg",
    "address": "2701 SEVIER AVE APARTMENT C7",
    "locality": "KNOXVILLE",
    "lat": 35.9535784,
    "lng": -83.89647459999999
  },
  {
    "name": "Conard Mark Richard",
    "img": "https://www.homefacts.com/images/offenders/tennessee/thumb/00509912.jpg",
    "address": "165 STRADER ROAD",
    "locality": "POWELL",
    "lat": 36.0349512,
    "lng": -84.09151299999999
  },
  {
    "name": "Conatser Arlie Clifton",
    "img": "https://www.homefacts.com/images/offenders/tennessee/thumb/00252428.jpg",
    "address": "6316 OLD WASHINGTON PIKE",
    "locality": "KNOXVILLE",
    "lat": 36.0644163,
    "lng": -83.8556157
  },
  {
    "name": "Conley Glynn",
    "img": "https://www.homefacts.com/images/offenders/tennessee/thumb/00508014.jpg",
    "address": "5307 W EMORY RD",
    "locality": "POWELL",
    "lat": 36.0077502,
    "lng": -84.077894
  },
  {
    "name": "Conway Brian Alan",
    "img": "https://www.homefacts.com/images/offenders/tennessee/thumb/00424879.jpg",
    "address": "2312 HARRIS ROAD",
    "locality": "KNOXVILLE",
    "lat": 36.0388554,
    "lng": -83.84609189999999
  },
  {
    "name": "Cook Wesley Lance",
    "img": "https://www.homefacts.com/images/offenders/tennessee/thumb/00159033.jpg",
    "address": "925 PINEY GROVECHURCH RD 1",
    "locality": "KNOXVILLE",
    "lat": 35.942674,
    "lng": -84.0426579
  },
  {
    "name": "Cooper Hugh Shugart",
    "img": "https://www.homefacts.com/images/offenders/tennessee/thumb/00589388.jpg",
    "address": "8900 STRATFORD CIRCLE",
    "locality": "KNOXVILLE",
    "lat": 35.9192294,
    "lng": -83.8761693
  },
  {
    "name": "Cooper John Lee",
    "img": "https://www.homefacts.com/images/offenders/tennessee/thumb/00654140.jpg",
    "address": "2725 DAFFODIL LN",
    "locality": "MASCOT",
    "lat": 36.0718889,
    "lng": -83.7678906
  },
  {
    "name": "Cooper Rashad Demond",
    "img": "https://www.homefacts.com/images/offenders/tennessee/thumb/00256531.jpg",
    "address": "4601 PLEASANT RIDGE ROAD",
    "locality": "KNOXVILLE",
    "lat": 35.9858256,
    "lng": -83.9838377
  },
  {
    "name": "Copeland Michael Lynn",
    "img": "https://www.homefacts.com/images/offenders/tennessee/thumb/00128676.jpg",
    "address": "5900 MCGINNIS ROAD",
    "locality": "CORRYTON",
    "lat": 36.1054375,
    "lng": -83.8125933
  },
  {
    "name": "Corley David Robert",
    "img": "https://www.homefacts.com/images/offenders/tennessee/thumb/00582495.jpg",
    "address": "2500 SHIPETOWN RD",
    "locality": "MASCOT",
    "lat": 36.0754411,
    "lng": -83.7606423
  },
  {
    "name": "Cornelius Regan Kendrick",
    "img": "https://www.homefacts.com/images/offenders/tennessee/thumb/SO009071.jpg",
    "address": "2932 HARRIS RD",
    "locality": "KNOXVILLE",
    "lat": 36.0451376,
    "lng": -83.8443394
  },
  {
    "name": "Couch Cecil Edward",
    "img": "https://www.homefacts.com/images/offenders/tennessee/thumb/00453256.jpg",
    "address": "925 WEST EMERALD AVE",
    "locality": "KNOXVILLE",
    "lat": 35.9798891,
    "lng": -83.9428994
  },
  {
    "name": "Cox Steven Hugh",
    "img": "https://www.homefacts.com/images/offenders/tennessee/thumb/SO004970.jpg",
    "address": "2029 FINE AVENUE",
    "locality": "KNOXVILLE",
    "lat": 35.9954196,
    "lng": -83.9124476
  },
  {
    "name": "Crabtree Mark Richard",
    "img": "https://www.homefacts.com/images/offenders/tennessee/thumb/SO013027.jpg",
    "address": "6846 AMBERFIELD LANE",
    "locality": "KNOXVILLE",
    "lat": 36.0347535,
    "lng": -83.9828174
  },
  {
    "name": "Crawley Fred Horton",
    "img": "https://www.homefacts.com/images/offenders/tennessee/thumb/00313206.jpg",
    "address": "5915 PRIMUS ROAD",
    "locality": "KNOXVILLE",
    "lat": 36.0156095,
    "lng": -83.9848633
  },
  {
    "name": "Crosby Alvin James",
    "img": "https://www.homefacts.com/images/offenders/tennessee/thumb/00569618.jpg",
    "address": "homeless",
    "locality": "KNOXVILLE",
    "lat": 35.965266,
    "lng": -83.923304
  },
  {
    "name": "Crosswhite Dwight Andrew",
    "img": "https://www.homefacts.com/images/offenders/tennessee/thumb/SO010180.jpg",
    "address": "1410 WRIGHTS FERRY ROAD 6",
    "locality": "KNOXVILLE",
    "lat": 35.9025303,
    "lng": -84.020079
  },
  {
    "name": "Crowe Mark Anthony",
    "img": "https://www.homefacts.com/images/offenders/tennessee/thumb/00566860.jpg",
    "address": "510 RONALD DR",
    "locality": "STRAWBERRY PLAINS",
    "lat": 36.0525536,
    "lng": -83.66317579999999
  },
  {
    "name": "Cummings Dennis Lymon",
    "img": "https://www.homefacts.com/images/offenders/tennessee/thumb/SO000616.jpg",
    "address": "7222 WINCHESTER DR",
    "locality": "KNOXVILLE",
    "lat": 35.9209038,
    "lng": -84.0240342
  },
  {
    "name": "Cunningham Bentley Scott",
    "img": "https://www.homefacts.com/images/offenders/tennessee/thumb/00654640.jpg",
    "address": "1532 FOX MEADOW CIRCLE",
    "locality": "KNOXVILLE",
    "lat": 35.885615,
    "lng": -84.0558874
  },
  {
    "name": "Dacus Douglas Brent",
    "img": "https://www.homefacts.com/images/offenders/tennessee/thumb/00311374.jpg",
    "address": "1205 W WALNUT GROVE ROAD",
    "locality": "KNOXVILLE",
    "lat": 36.0117122,
    "lng": -83.9455299
  },
  {
    "name": "Dalton Howard Charles",
    "img": "https://www.homefacts.com/images/offenders/tennessee/thumb/00105467.jpg",
    "address": "409 N BROADWAY",
    "locality": "KNOXVILLE",
    "lat": 35.9707663,
    "lng": -83.92455389999999
  },
  {
    "name": "Daniel Wilbert F",
    "img": "https://www.homefacts.com/images/offenders/tennessee/thumb/00505295.jpg",
    "address": "4319 GREENWAY DR",
    "locality": "KNOXVILLE",
    "lat": 36.0331969,
    "lng": -83.8948412
  },
  {
    "name": "Daniels Keith Marcel",
    "img": "https://www.homefacts.com/images/offenders/tennessee/thumb/00264671.jpg",
    "address": "homeless",
    "locality": "KNOXVILLE",
    "lat": 35.965266,
    "lng": -83.923304
  },
  {
    "name": "Darby Gerald Andrew",
    "img": "https://www.homefacts.com/images/offenders/tennessee/thumb/SO016690.jpg",
    "address": "6300 ASHEVILLE HIGHWAY 120",
    "locality": "KNOXVILLE",
    "lat": 36.01678440000001,
    "lng": -83.8236359
  },
  {
    "name": "Davenport Anthony Ray",
    "img": "https://www.homefacts.com/images/offenders/tennessee/thumb/00369102.jpg",
    "address": "2358 MCCAMPBELL WAY",
    "locality": "KNOXVILLE",
    "lat": 36.0316855,
    "lng": -83.8612425
  },
  {
    "name": "Davenport Max",
    "img": "https://www.homefacts.com/images/offenders/tennessee/thumb/00631253.jpg",
    "address": "509 HARROW RD",
    "locality": "KNOXVILLE",
    "lat": 35.8640484,
    "lng": -84.166012
  },
  {
    "name": "Davidson Christopher",
    "img": "https://www.homefacts.com/images/offenders/tennessee/thumb/00651942.jpg",
    "address": "6409 RIDGE RUN DR",
    "locality": "KNOXVILLE",
    "lat": 35.9998703,
    "lng": -84.0194719
  },
  {
    "name": "Davis Bobby Allen",
    "img": "https://www.homefacts.com/images/offenders/tennessee/thumb/00107332.jpg",
    "address": "800 MARKET ST",
    "locality": "KNOXVILLE",
    "lat": 35.9620244,
    "lng": -83.9170743
  },
  {
    "name": "Davis David Larry",
    "img": "https://www.homefacts.com/images/offenders/tennessee/thumb/00474796.jpg",
    "address": "3547 WADE DANIEL WAY",
    "locality": "POWELL",
    "lat": 36.0247287,
    "lng": -84.058191
  },
  {
    "name": "Davis Ina Michelle",
    "img": "https://www.homefacts.com/images/offenders/tennessee/thumb/00137302.jpg",
    "address": "834 CANTON HOLLOW RD LOT 50",
    "locality": "KNOXVILLE",
    "lat": 35.8802308,
    "lng": -84.1221463
  },
  {
    "name": "Davis Kenneth Lee",
    "img": "https://www.homefacts.com/images/offenders/tennessee/thumb/00388082.jpg",
    "address": "2324 CLEAR SPRINGS RD LOT A",
    "locality": "MASCOT",
    "lat": 36.0760032,
    "lng": -83.7180188
  },
  {
    "name": "Davis Marcus Nigel",
    "img": "https://www.homefacts.com/images/offenders/tennessee/thumb/00272024.jpg",
    "address": "2315 RIDGECREST DRIVE",
    "locality": "KNOXVILLE",
    "lat": 36.03833770000001,
    "lng": -83.94382879999999
  },
  {
    "name": "Davis Samuel Dwayne",
    "img": "https://www.homefacts.com/images/offenders/tennessee/thumb/00009341.jpg",
    "address": "1234 HILTON RD ROOM 103",
    "locality": "KNOXVILLE",
    "lat": 35.95608989999999,
    "lng": -84.0030113
  },
  {
    "name": "Davis Stephen",
    "img": "https://www.homefacts.com/images/offenders/tennessee/thumb/00585545.jpg",
    "address": "6300 HIGH DRIVE",
    "locality": "KNOXVILLE",
    "lat": 35.9853942,
    "lng": -84.02704829999999
  },
  {
    "name": "Delaney Derek Lee",
    "img": "https://www.homefacts.com/images/offenders/tennessee/thumb/00402050.jpg",
    "address": "2700 MYNATT RD",
    "locality": "KNOXVILLE",
    "lat": 36.0532237,
    "lng": -83.9459189
  },
  {
    "name": "Dewey Benjamin Lambert",
    "img": "https://www.homefacts.com/images/offenders/tennessee/thumb/SO016781.jpg",
    "address": "1229 HARALSON LN",
    "locality": "KNOXVILLE",
    "lat": 36.06407170000001,
    "lng": -83.983706
  },
  {
    "name": "Diaz Hibraim Jonathan",
    "img": "https://www.homefacts.com/images/offenders/tennessee/thumb/00623364.jpg",
    "address": "324 PROSPERITY DIRVE",
    "locality": "KNOXVILLE",
    "lat": 35.9232411,
    "lng": -84.0793813
  },
  {
    "name": "Dick James Lloyd",
    "img": "https://www.homefacts.com/images/offenders/tennessee/thumb/00381356.jpg",
    "address": "356 NASH ROAD",
    "locality": "KNOXVILLE",
    "lat": 36.0067849,
    "lng": -83.8684158
  },
  {
    "name": "Dieffenderfer Antezz Lamont",
    "img": "https://www.homefacts.com/images/offenders/tennessee/thumb/00483366.jpg",
    "address": "8709 ASHVILLE HWY",
    "locality": "KNOXVILLE",
    "lat": 36.0268304,
    "lng": -83.7332445
  },
  {
    "name": "Dills Raymond Eugene",
    "img": "https://www.homefacts.com/images/offenders/tennessee/thumb/00464022.jpg",
    "address": "2309 WOODS SMITH RD",
    "locality": "KNOXVILLE",
    "lat": 35.9748134,
    "lng": -84.03256929999999
  },
  {
    "name": "Dison James Eric",
    "img": "https://www.homefacts.com/images/offenders/tennessee/thumb/00252825.jpg",
    "address": "906 BEAMAN LAKE RD",
    "locality": "KNOXVILLE",
    "lat": 35.99332330000001,
    "lng": -83.8691905
  },
  {
    "name": "Dixon Anthony Wayne",
    "img": "https://www.homefacts.com/images/offenders/tennessee/thumb/SO011311.jpg",
    "address": "10621 SANDPIPER LANE",
    "locality": "KNOXVILLE",
    "lat": 35.8584043,
    "lng": -84.11498050000002
  },
  {
    "name": "Dixon Paul S",
    "img": "https://www.homefacts.com/images/offenders/tennessee/thumb/00629348.jpg",
    "address": "1500 N CHERRY ST 230",
    "locality": "KNOXVILLE",
    "lat": 35.9934504,
    "lng": -83.9007496
  },
  {
    "name": "Dobbins William Thomas",
    "img": "https://www.homefacts.com/images/offenders/tennessee/thumb/00584474.jpg",
    "address": "homeless",
    "locality": "KNOXVILLE",
    "lat": 35.965266,
    "lng": -83.923304
  },
  {
    "name": "Donovan David James",
    "img": "https://www.homefacts.com/images/offenders/tennessee/thumb/SO015297.jpg",
    "address": "6300 ASHEVILLE HIGHWAY 238",
    "locality": "KNOXVILLE",
    "lat": 36.01678440000001,
    "lng": -83.8236359
  },
  {
    "name": "Donton David Allen",
    "img": "https://www.homefacts.com/images/offenders/tennessee/thumb/00626269.jpg",
    "address": "7201 NATIVITY LANE",
    "locality": "KNOXVILLE",
    "lat": 36.0402844,
    "lng": -83.8254461
  },
  {
    "name": "Dotson Dustin Lee",
    "img": "https://www.homefacts.com/images/offenders/tennessee/thumb/00571063.jpg",
    "address": "4411 HIGH SCHOOL ROAD",
    "locality": "KNOXVILLE",
    "lat": 36.0091112,
    "lng": -83.95793809999999
  },
  {
    "name": "Douglas Todd S",
    "img": "https://www.homefacts.com/images/offenders/tennessee/thumb/00363540.jpg",
    "address": "homeless",
    "locality": "KNOXVILLE",
    "lat": 35.965266,
    "lng": -83.923304
  },
  {
    "name": "Drake Brandon Kevin",
    "img": "https://www.homefacts.com/images/offenders/tennessee/thumb/SO018227.jpg",
    "address": "6023 BRIDGE GARDEN DRIVE",
    "locality": "KNOXVILLE",
    "lat": 36.00091949999999,
    "lng": -84.0061867
  },
  {
    "name": "Drye Jeffery Donald",
    "img": "https://www.homefacts.com/images/offenders/tennessee/thumb/SO011165.jpg",
    "address": "9451 PEDIGO ROAD",
    "locality": "POWELL",
    "lat": 36.1181665,
    "lng": -83.99172399999999
  },
  {
    "name": "Duarte Jose Pio",
    "img": "https://www.homefacts.com/images/offenders/tennessee/thumb/00576368.jpg",
    "address": "800 MARKET STREET SUITE 23107",
    "locality": "KNOXVILLE",
    "lat": 35.9620244,
    "lng": -83.9170743
  },
  {
    "name": "Dukes Frederick Risher",
    "img": "https://www.homefacts.com/images/offenders/tennessee/thumb/00616270.jpg",
    "address": "3014 FORRESTDALE AVE APT 24",
    "locality": "KNOXVILLE",
    "lat": 36.0095454,
    "lng": -83.9058108
  },
  {
    "name": "Duncan Carl Edward",
    "img": "https://www.homefacts.com/images/offenders/tennessee/thumb/00455990.jpg",
    "address": "5102 FORT SUMTER",
    "locality": "KNOXVILLE",
    "lat": 36.1180287,
    "lng": -83.9284359
  },
  {
    "name": "Dyer Art",
    "img": "https://www.homefacts.com/images/offenders/tennessee/thumb/00390157.jpg",
    "address": "10820 PARKSIDE DRIVE",
    "locality": "KNOXVILLE",
    "lat": 35.8985869,
    "lng": -84.1441732
  },
  {
    "name": "Earls Michael Allen",
    "img": "https://www.homefacts.com/images/offenders/tennessee/thumb/00464021.jpg",
    "address": "1515 BOWMAN DRIVE",
    "locality": "KNOXVILLE",
    "lat": 36.0341103,
    "lng": -83.8309645
  },
  {
    "name": "Eastman Kenneth Tate",
    "img": "https://www.homefacts.com/images/offenders/tennessee/thumb/00590370.jpg",
    "address": "400 W MAIN ST STE L165",
    "locality": "KNOXVILLE",
    "lat": 36.1597996,
    "lng": -82.8331575
  },
  {
    "name": "Eddleman Amber Janine",
    "img": "https://www.homefacts.com/images/offenders/tennessee/thumb/00561325.jpg",
    "address": "427 W YOUNG HIGH PIKE",
    "locality": "KNOXVILLE",
    "lat": 35.9321022,
    "lng": -83.9113283
  },
  {
    "name": "Edelen Jason Patrick",
    "img": "https://www.homefacts.com/images/offenders/tennessee/thumb/00335117.jpg",
    "address": "902 B E HENDRON CHAPEL RD",
    "locality": "KNOXVILLE",
    "lat": 35.910986,
    "lng": -83.8017098
  },
  {
    "name": "Edgar Johnny Ray",
    "img": "https://www.homefacts.com/images/offenders/tennessee/thumb/00581699.jpg",
    "address": "8622 WIDENER RD",
    "locality": "KNOXVILLE",
    "lat": 35.903852,
    "lng": -83.7950453
  },
  {
    "name": "Edwards Douglas Wilburn",
    "img": "https://www.homefacts.com/images/offenders/tennessee/thumb/00253767.jpg",
    "address": "homeless",
    "locality": "KNOXVILLE",
    "lat": 35.965266,
    "lng": -83.923304
  },
  {
    "name": "Ellis Gerald Ray",
    "img": "https://www.homefacts.com/images/offenders/tennessee/thumb/SO007783.jpg",
    "address": "1106 IRENE AVE",
    "locality": "KNOXVILLE",
    "lat": 35.9571563,
    "lng": -83.9031042
  },
  {
    "name": "Ellis Gregory Nickolas",
    "img": "https://www.homefacts.com/images/offenders/tennessee/thumb/SO016802.jpg",
    "address": "204 PELHAM ROAD",
    "locality": "KNOXVILLE",
    "lat": 36.0056232,
    "lng": -83.8716096
  },
  {
    "name": "Ellis Michael Anthony",
    "img": "https://www.homefacts.com/images/offenders/tennessee/thumb/00435253.jpg",
    "address": "7529 TEMPLE ACRES DR",
    "locality": "KNOXVILLE",
    "lat": 36.0932049,
    "lng": -83.92366179999999
  },
  {
    "name": "Emert Jackie",
    "img": "https://www.homefacts.com/images/offenders/tennessee/thumb/00281543.jpg",
    "address": "2416 CENTER AVE",
    "locality": "KNOXVILLE",
    "lat": 35.9774809,
    "lng": -83.89109119999999
  },
  {
    "name": "England Loyed Matthew",
    "img": "https://www.homefacts.com/images/offenders/tennessee/thumb/00562044.jpg",
    "address": "6203 THOMAS RD",
    "locality": "KNOXVILLE",
    "lat": 35.9235201,
    "lng": -83.87073749999999
  },
  {
    "name": "Erbaugh Larry Joseph",
    "img": "https://www.homefacts.com/images/offenders/tennessee/thumb/00630187.jpg",
    "address": "5634 MERCHANT CENTER",
    "locality": "KNOXVILLE",
    "lat": 36.0118583,
    "lng": -83.976905
  },
  {
    "name": "Ervin Michael Daniel",
    "img": "https://www.homefacts.com/images/offenders/tennessee/thumb/00630335.jpg",
    "address": "5001 MALONEYVILLE RD",
    "locality": "KNOXVILLE",
    "lat": 36.0853331,
    "lng": -83.84035039999999
  },
  {
    "name": "Estrada Victor Manuel",
    "img": "https://www.homefacts.com/images/offenders/tennessee/thumb/00548614.jpg",
    "address": "324 PROSPERITY DR",
    "locality": "KNOXVILLE",
    "lat": 35.9232411,
    "lng": -84.0793813
  },
  {
    "name": "Everard Cory Thomas",
    "img": "https://www.homefacts.com/images/offenders/tennessee/thumb/SO018714.jpg",
    "address": "6520 ARBORCREST WAY",
    "locality": "KNOXVILLE",
    "lat": 36.0614066,
    "lng": -83.9181959
  },
  {
    "name": "Farley Charles Edwin",
    "img": "https://www.homefacts.com/images/offenders/tennessee/thumb/00587098.jpg",
    "address": "6521 BORUFF ROAD",
    "locality": "CORRYTON",
    "lat": 36.1171406,
    "lng": -83.8234155
  },
  {
    "name": "Farr Steven Michael",
    "img": "https://www.homefacts.com/images/offenders/tennessee/thumb/00265516.jpg",
    "address": "187 MAPLES RD",
    "locality": "KNOXVILLE",
    "lat": 35.8831544,
    "lng": -83.79722579999999
  },
  {
    "name": "Farrar Jackson Aaron David",
    "img": "https://www.homefacts.com/images/offenders/tennessee/thumb/00455883.jpg",
    "address": "3100 ROBERTS RD LOT F1",
    "locality": "KNOXVILLE",
    "lat": 36.0796249,
    "lng": -83.77634839999999
  },
  {
    "name": "Faubion James Richard",
    "img": "https://www.homefacts.com/images/offenders/tennessee/thumb/00389767.jpg",
    "address": "1504 MITCHELL STREET",
    "locality": "KNOXVILLE",
    "lat": 35.9877516,
    "lng": -83.911529
  },
  {
    "name": "Faulk Freddie",
    "img": "https://www.homefacts.com/images/offenders/tennessee/thumb/00432422.jpg",
    "address": "homeless",
    "locality": "KNOXVILLE",
    "lat": 35.965266,
    "lng": -83.923304
  },
  {
    "name": "Feiertag David Joel",
    "img": "https://www.homefacts.com/images/offenders/tennessee/thumb/SO017430.jpg",
    "address": "8138 SEVIERVILLE PIKE",
    "locality": "KNOXVILLE",
    "lat": 35.91047289999999,
    "lng": -83.8098163
  },
  {
    "name": "Felty Jerry Max",
    "img": "https://www.homefacts.com/images/offenders/tennessee/thumb/00328308.jpg",
    "address": "6433 THORNGROVE PIKE",
    "locality": "KNOXVILLE",
    "lat": 35.9595766,
    "lng": -83.7798584
  },
  {
    "name": "Ferguson Jeremy Elisha",
    "img": "https://www.homefacts.com/images/offenders/tennessee/thumb/00549536.jpg",
    "address": "3220 GINN DRIVE",
    "locality": "KNOXVILLE",
    "lat": 35.9093779,
    "lng": -83.95158719999999
  },
  {
    "name": "Ferguson Rex Allen",
    "img": "https://www.homefacts.com/images/offenders/tennessee/thumb/00210506.jpg",
    "address": "7805 SHOFFNER LN",
    "locality": "KNOXVILLE",
    "lat": 36.0968128,
    "lng": -83.94344009999999
  },
  {
    "name": "Fields Joseph Lee",
    "img": "https://www.homefacts.com/images/offenders/tennessee/thumb/00312413.jpg",
    "address": "726 BRUNER ROAD",
    "locality": "STRAWBERRY PLAINS",
    "lat": 36.0635737,
    "lng": -83.6307808
  },
  {
    "name": "Fine Christopher Ray",
    "img": "https://www.homefacts.com/images/offenders/tennessee/thumb/00582322.jpg",
    "address": "homeless",
    "locality": "KNOXVILLE",
    "lat": 35.965266,
    "lng": -83.923304
  },
  {
    "name": "Fitzanko Paul Alan",
    "img": "https://www.homefacts.com/images/offenders/tennessee/thumb/00212867.jpg",
    "address": "800 MARKET ST 320 US MARSHAL C",
    "locality": "KNOXVILLE",
    "lat": 35.965266,
    "lng": -83.923304
  },
  {
    "name": "Flenniken Rocky Dean",
    "img": "https://www.homefacts.com/images/offenders/tennessee/thumb/00366311.jpg",
    "address": "3508 ARGYLE DRIVE",
    "locality": "KNOXVILLE",
    "lat": 35.9882293,
    "lng": -83.8682103
  },
  {
    "name": "Ford Jacob Andrew",
    "img": "https://www.homefacts.com/images/offenders/tennessee/thumb/00482155.jpg",
    "address": "2429 BAKERTOWN RD",
    "locality": "KNOXVILLE",
    "lat": 35.9590593,
    "lng": -84.05991519999999
  },
  {
    "name": "Fore Bobby James",
    "img": "https://www.homefacts.com/images/offenders/tennessee/thumb/00518940.jpg",
    "address": "7744 RALPH YOUMANS RD",
    "locality": "CORRYTON",
    "lat": 36.1301838,
    "lng": -83.8693509
  },
  {
    "name": "Fortner Thomas David",
    "img": "https://www.homefacts.com/images/offenders/tennessee/thumb/SO000695.jpg",
    "address": "3229 GINN DR",
    "locality": "KNOXVILLE",
    "lat": 35.909783,
    "lng": -83.952705
  },
  {
    "name": "Fortson John Lewis",
    "img": "https://www.homefacts.com/images/offenders/tennessee/thumb/00138879.jpg",
    "address": "4309 TYNEMOUTH ROAD",
    "locality": "KNOXVILLE",
    "lat": 35.9908704,
    "lng": -83.86159839999999
  },
  {
    "name": "Freeman Ivan K",
    "img": "https://www.homefacts.com/images/offenders/tennessee/thumb/00652397.jpg",
    "address": "2521 HAMMOND LN",
    "locality": "KNOXVILLE",
    "lat": 35.9964955,
    "lng": -84.0110462
  },
  {
    "name": "Fryar James Alexander",
    "img": "https://www.homefacts.com/images/offenders/tennessee/thumb/00613720.jpg",
    "address": "1250 TENNOVA MEDICAL BLVD",
    "locality": "KNOXVILLE",
    "lat": 35.9439841,
    "lng": -84.02208139999999
  },
  {
    "name": "Fusman Nathan Laren",
    "img": "https://www.homefacts.com/images/offenders/tennessee/thumb/00569452.jpg",
    "address": "7935 N FOREST RD",
    "locality": "KNOXVILLE",
    "lat": 35.9488239,
    "lng": -84.05089009999999
  },
  {
    "name": "Galbreath Thomas Andrew",
    "img": "https://www.homefacts.com/images/offenders/tennessee/thumb/00348118.jpg",
    "address": "homeless",
    "locality": "KNOXVILLE",
    "lat": 35.965266,
    "lng": -83.923304
  },
  {
    "name": "Gann Ronald",
    "img": "https://www.homefacts.com/images/offenders/tennessee/thumb/00643330.jpg",
    "address": "5612 LON ROBERTS DRIVE",
    "locality": "KNOXVILLE",
    "lat": 36.0464875,
    "lng": -83.92483059999999
  },
  {
    "name": "Garcia Florentino Ramos",
    "img": "https://www.homefacts.com/images/offenders/tennessee/thumb/00564912.jpg",
    "address": "ICE CUSTODY",
    "locality": "KNOXVILLE",
    "lat": 35.965266,
    "lng": -83.923304
  },
  {
    "name": "Garrett William Thomas",
    "img": "https://www.homefacts.com/images/offenders/tennessee/thumb/00614015.jpg",
    "address": "1605 FAIRMONT BLVD",
    "locality": "KNOXVILLE",
    "lat": 36.0038199,
    "lng": -83.9254385
  },
  {
    "name": "Gary David",
    "img": "https://www.homefacts.com/images/offenders/tennessee/thumb/00572282.jpg",
    "address": "1700 WINSTON RD ROOM 101",
    "locality": "KNOXVILLE",
    "lat": 35.924593,
    "lng": -84.0447923
  },
  {
    "name": "Gasaway Ray Charles",
    "img": "https://www.homefacts.com/images/offenders/tennessee/thumb/00262306.jpg",
    "address": "307 MCCORMICK AVENUE",
    "locality": "KNOXVILLE",
    "lat": 35.9608289,
    "lng": -83.9003912
  },
  {
    "name": "Gaunt James Michael",
    "img": "https://www.homefacts.com/images/offenders/tennessee/thumb/SO007969.jpg",
    "address": "3516 STEWART RUN WAY LOT 5",
    "locality": "POWELL",
    "lat": 36.0256104,
    "lng": -84.06003009999999
  },
  {
    "name": "Gentile Richard Lee",
    "img": "https://www.homefacts.com/images/offenders/tennessee/thumb/00566388.jpg",
    "address": "8750 MASCOT RD",
    "locality": "KNOXVILLE",
    "lat": 36.0624638,
    "lng": -83.7672224
  },
  {
    "name": "Gerringer Marvin Wayne",
    "img": "https://www.homefacts.com/images/offenders/tennessee/thumb/SO019320.jpg",
    "address": "5001 MALONEYVILLE RD",
    "locality": "KNOXVILLE",
    "lat": 36.0853331,
    "lng": -83.84035039999999
  },
  {
    "name": "Gettis Leroy Nmn",
    "img": "https://www.homefacts.com/images/offenders/tennessee/thumb/SO016851.jpg",
    "address": "homeless",
    "locality": "KNOXVILLE",
    "lat": 35.965266,
    "lng": -83.923304
  },
  {
    "name": "Gibson David Nelson",
    "img": "https://www.homefacts.com/images/offenders/tennessee/thumb/00318499.jpg",
    "address": "5001 MALONEYVILLE RD",
    "locality": "KNOXVILLE",
    "lat": 36.0853331,
    "lng": -83.84035039999999
  },
  {
    "name": "Gilbert Jesse James",
    "img": "https://www.homefacts.com/images/offenders/tennessee/thumb/00273446.jpg",
    "address": "2507 HOITT AVE",
    "locality": "KNOXVILLE",
    "lat": 35.9948188,
    "lng": -83.90639519999999
  },
  {
    "name": "Gilbert William August",
    "img": "https://www.homefacts.com/images/offenders/tennessee/thumb/SO019166.jpg",
    "address": "1633 RIVER POPPY RD",
    "locality": "MASCOT",
    "lat": 36.0581692,
    "lng": -83.736345
  },
  {
    "name": "Giles Jeremy",
    "img": "https://www.homefacts.com/images/offenders/tennessee/thumb/00473983.jpg",
    "address": "homeless",
    "locality": "KNOXVILLE",
    "lat": 35.965266,
    "lng": -83.923304
  },
  {
    "name": "Glasper Shannon Lee",
    "img": "https://www.homefacts.com/images/offenders/tennessee/thumb/00518091.jpg",
    "address": "1909 WOODS CREEK RD",
    "locality": "KNOXVILLE",
    "lat": 36.0342799,
    "lng": -83.83993960000001
  },
  {
    "name": "Glatz Glenn Fred",
    "img": "https://www.homefacts.com/images/offenders/tennessee/thumb/00514325.jpg",
    "address": "800 MARKET ST 320 US MARSHAL S",
    "locality": "KNOXVILLE",
    "lat": 35.965266,
    "lng": -83.923304
  },
  {
    "name": "Glenn James Michael",
    "img": "https://www.homefacts.com/images/offenders/tennessee/thumb/SO018422.jpg",
    "address": "800 MARKET ST US MARSHAL SERVI",
    "locality": "KNOXVILLE",
    "lat": 35.965266,
    "lng": -83.923304
  },
  {
    "name": "Godfrey Donald Louis",
    "img": "https://www.homefacts.com/images/offenders/tennessee/thumb/SO010419.jpg",
    "address": "homeless",
    "locality": "KNOXVILLE",
    "lat": 35.965266,
    "lng": -83.923304
  },
  {
    "name": "Goins Japa Das",
    "img": "https://www.homefacts.com/images/offenders/tennessee/thumb/00641205.jpg",
    "address": "5001 MALONEYVILLE RD",
    "locality": "KNOXVILLE",
    "lat": 36.0853331,
    "lng": -83.84035039999999
  },
  {
    "name": "Gordan Jon Patrick",
    "img": "https://www.homefacts.com/images/offenders/tennessee/thumb/00457652.jpg",
    "address": "5001 MALONEYVILLE RD",
    "locality": "KNOXVILLE",
    "lat": 36.0853331,
    "lng": -83.84035039999999
  },
  {
    "name": "Graves Mark Joseph",
    "img": "https://www.homefacts.com/images/offenders/tennessee/thumb/00499578.jpg",
    "address": "8600 OLD COLONY TRAIL UNIT 103",
    "locality": "KNOXVILLE",
    "lat": 35.9003823,
    "lng": -84.06623739999999
  },
  {
    "name": "Gray Christopher Eric",
    "img": "https://www.homefacts.com/images/offenders/tennessee/thumb/00466802.jpg",
    "address": "homeless",
    "locality": "KNOXVILLE",
    "lat": 35.965266,
    "lng": -83.923304
  },
  {
    "name": "Green James Russell",
    "img": "https://www.homefacts.com/images/offenders/tennessee/thumb/00654119.jpg",
    "address": "3202 LUWANA RD",
    "locality": "KNOXVILLE",
    "lat": 36.0177407,
    "lng": -83.8943419
  },
  {
    "name": "Green Jason Douglas",
    "img": "https://www.homefacts.com/images/offenders/tennessee/thumb/00376441.jpg",
    "address": "9003 ANDERSONVILLE PK",
    "locality": "POWELL",
    "lat": 36.115849,
    "lng": -83.97792199999999
  },
  {
    "name": "Grimes Paul Eugene",
    "img": "https://www.homefacts.com/images/offenders/tennessee/thumb/00354878.jpg",
    "address": "1500 N CHERRY ST RM 306",
    "locality": "KNOXVILLE",
    "lat": 35.9934504,
    "lng": -83.9007496
  },
  {
    "name": "Grippe Christopher David",
    "img": "https://www.homefacts.com/images/offenders/tennessee/thumb/00497150.jpg",
    "address": "800 MARKET STREET",
    "locality": "KNOXVILLE",
    "lat": 35.9620244,
    "lng": -83.9170743
  },
  {
    "name": "Gunnell Christopher",
    "img": "https://www.homefacts.com/images/offenders/tennessee/thumb/00614655.jpg",
    "address": "4058 MOUNTAIN VISTA RD",
    "locality": "KNOXVILLE",
    "lat": 35.992103,
    "lng": -84.14712829999999
  },
  {
    "name": "Gust Timothy Andrew",
    "img": "https://www.homefacts.com/images/offenders/tennessee/thumb/SO018335.jpg",
    "address": "7305 HICKORY NUT LANE",
    "locality": "KNOXVILLE",
    "lat": 36.0273395,
    "lng": -83.7865611
  },
  {
    "name": "Gutierrez Nicolas Martinez",
    "img": "https://www.homefacts.com/images/offenders/tennessee/thumb/00561503.jpg",
    "address": "homeless",
    "locality": "KNOXVILLE",
    "lat": 35.965266,
    "lng": -83.923304
  },
  {
    "name": "Hall Mark Anthony",
    "img": "https://www.homefacts.com/images/offenders/tennessee/thumb/00343178.jpg",
    "address": "2014 SILVER BROOK DRIVE",
    "locality": "KNOXVILLE",
    "lat": 35.953569,
    "lng": -84.055373
  },
  {
    "name": "Hall Matthew David",
    "img": "https://www.homefacts.com/images/offenders/tennessee/thumb/00536239.jpg",
    "address": "homeless",
    "locality": "KNOXVILLE",
    "lat": 35.965266,
    "lng": -83.923304
  },
  {
    "name": "Hamlet Jessica L",
    "img": "https://www.homefacts.com/images/offenders/tennessee/thumb/00466592.jpg",
    "address": "1228 MURRAY RD NW",
    "locality": "KNOXVILLE",
    "lat": 36.0064656,
    "lng": -84.0014533
  },
  {
    "name": "Hammett Allen Anthony",
    "img": "https://www.homefacts.com/images/offenders/tennessee/thumb/00533804.jpg",
    "address": "1110 TENNESSEE AVE APT 4",
    "locality": "KNOXVILLE",
    "lat": 35.9824193,
    "lng": -83.94910279999999
  },
  {
    "name": "Hampton Jason Paul",
    "img": "https://www.homefacts.com/images/offenders/tennessee/thumb/00587429.jpg",
    "address": "300 LUPINE DRIVE",
    "locality": "KNOXVILLE",
    "lat": 36.0134932,
    "lng": -83.82108079999999
  },
  {
    "name": "Harbin Yancey P",
    "img": "https://www.homefacts.com/images/offenders/tennessee/thumb/SO015926.jpg",
    "address": "133 STRADER RD",
    "locality": "POWELL",
    "lat": 36.0325103,
    "lng": -84.0914209
  },
  {
    "name": "Hargis Spencer",
    "img": "https://www.homefacts.com/images/offenders/tennessee/thumb/00626191.jpg",
    "address": "3006 KELLER BEND RD",
    "locality": "KNOXVILLE",
    "lat": 35.8447402,
    "lng": -84.06036399999999
  },
  {
    "name": "Harrell Douglas Eric",
    "img": "https://www.homefacts.com/images/offenders/tennessee/thumb/SO019375.jpg",
    "address": "6604 GREENVIEW DRIVE",
    "locality": "KNOXVILLE",
    "lat": 36.05386439999999,
    "lng": -83.9467396
  },
  {
    "name": "Harris Rachelle Leigh",
    "img": "https://www.homefacts.com/images/offenders/tennessee/thumb/00163513.jpg",
    "address": "5612 LIBBY WAY",
    "locality": "KNOXVILLE",
    "lat": 36.0379981,
    "lng": -83.86395309999999
  },
  {
    "name": "Harris Tommy Carroll",
    "img": "https://www.homefacts.com/images/offenders/tennessee/thumb/00288115.jpg",
    "address": "7215 ASHVILLE HW APT 17",
    "locality": "KNOXVILLE",
    "lat": 36.0206957,
    "lng": -83.7899199
  },
  {
    "name": "Harris Trevae",
    "img": "https://www.homefacts.com/images/offenders/tennessee/thumb/SO017336.jpg",
    "address": "5001 MALONEYVILLE RD",
    "locality": "KNOXVILLE",
    "lat": 36.0853331,
    "lng": -83.84035039999999
  },
  {
    "name": "Harrison Graham Scott",
    "img": "https://www.homefacts.com/images/offenders/tennessee/thumb/00463892.jpg",
    "address": "807 BLACK OAK DRIVE",
    "locality": "KNOXVILLE",
    "lat": 36.0085339,
    "lng": -83.9907321
  },
  {
    "name": "Harrison Larry K",
    "img": "https://www.homefacts.com/images/offenders/tennessee/thumb/00306150.jpg",
    "address": "248 DAVIS ROAD",
    "locality": "STRAWBERRY PLAINS",
    "lat": 36.0677768,
    "lng": -83.6860063
  },
  {
    "name": "Harshaw John Kelvin",
    "img": "https://www.homefacts.com/images/offenders/tennessee/thumb/SO006893.jpg",
    "address": "3923 PORTER AVE",
    "locality": "KNOXVILLE",
    "lat": 35.9993935,
    "lng": -83.87133999999999
  },
  {
    "name": "Hartless Michael Ray",
    "img": "https://www.homefacts.com/images/offenders/tennessee/thumb/00331770.jpg",
    "address": "5001 MALONEYVILLE RD",
    "locality": "KNOXVILLE",
    "lat": 36.0853331,
    "lng": -83.84035039999999
  },
  {
    "name": "Haskett David Allen",
    "img": "https://www.homefacts.com/images/offenders/tennessee/thumb/SO018941.jpg",
    "address": "308 CASH ROAD",
    "locality": "KNOXVILLE",
    "lat": 36.0278402,
    "lng": -83.7639355
  },
  {
    "name": "Haskins David Ruff",
    "img": "https://www.homefacts.com/images/offenders/tennessee/thumb/00569711.jpg",
    "address": "5001 MALONEYVILLE RD",
    "locality": "KNOXVILLE",
    "lat": 36.0853331,
    "lng": -83.84035039999999
  },
  {
    "name": "Haviland Timothy Paul",
    "img": "https://www.homefacts.com/images/offenders/tennessee/thumb/00588813.jpg",
    "address": "8137 PARADISE DR",
    "locality": "POWELL",
    "lat": 36.0442321,
    "lng": -84.0337364
  },
  {
    "name": "Haynes Anthony Carson",
    "img": "https://www.homefacts.com/images/offenders/tennessee/thumb/SO016347.jpg",
    "address": "4827 MAPLE ROAD 2",
    "locality": "KNOXVILLE",
    "lat": 36.0147803,
    "lng": -83.9594925
  },
  {
    "name": "Haynes Brian David",
    "img": "https://www.homefacts.com/images/offenders/tennessee/thumb/00443216.jpg",
    "address": "8320 WOOD RD",
    "locality": "CORRYTON",
    "lat": 36.1585304,
    "lng": -83.8480678
  },
  {
    "name": "Headrick Dwayne Wendall",
    "img": "https://www.homefacts.com/images/offenders/tennessee/thumb/00135607.jpg",
    "address": "1528 TARKLIN VALLEY ROAD",
    "locality": "KNOXVILLE",
    "lat": 35.8545112,
    "lng": -83.8461263
  },
  {
    "name": "Hefner Terry Charles",
    "img": "https://www.homefacts.com/images/offenders/tennessee/thumb/00395445.jpg",
    "address": "5001 MALONEYVILLE RD",
    "locality": "KNOXVILLE",
    "lat": 36.0853331,
    "lng": -83.84035039999999
  },
  {
    "name": "Heifner Jay Junior",
    "img": "https://www.homefacts.com/images/offenders/tennessee/thumb/00594853.jpg",
    "address": "5001 MALONEYVILLE RD",
    "locality": "KNOXVILLE",
    "lat": 36.0853331,
    "lng": -83.84035039999999
  },
  {
    "name": "Hellard William Ray",
    "img": "https://www.homefacts.com/images/offenders/tennessee/thumb/00074770.jpg",
    "address": "8549 OLD JACKSBORO RD APT A",
    "locality": "KNOXVILLE",
    "lat": 36.10553350000001,
    "lng": -83.9683704
  },
  {
    "name": "Helton Jerry Steven",
    "img": "https://www.homefacts.com/images/offenders/tennessee/thumb/SO009494.jpg",
    "address": "5001 MALONEYVILLE RD",
    "locality": "KNOXVILLE",
    "lat": 36.0853331,
    "lng": -83.84035039999999
  },
  {
    "name": "Hembree Gary Don",
    "img": "https://www.homefacts.com/images/offenders/tennessee/thumb/00313744.jpg",
    "address": "3224 GREENWAY DR",
    "locality": "KNOXVILLE",
    "lat": 36.0270554,
    "lng": -83.9090947
  },
  {
    "name": "Hendricks Jason Wayne",
    "img": "https://www.homefacts.com/images/offenders/tennessee/thumb/SO012913.jpg",
    "address": "800MARKET ST. SUITE 2-3107 SUM",
    "locality": "KNOXVILLE",
    "lat": 36.316233,
    "lng": -82.3708709
  },
  {
    "name": "Henegar Michael Tyler",
    "img": "https://www.homefacts.com/images/offenders/tennessee/thumb/00528720.jpg",
    "address": "5816 SANFORD RD APT 1",
    "locality": "KNOXVILLE",
    "lat": 36.0211997,
    "lng": -83.97513149999999
  },
  {
    "name": "Hernandez Francisco Ascencio",
    "img": "https://www.homefacts.com/images/offenders/tennessee/thumb/00627516.jpg",
    "address": "6129 BABELAY ROAD",
    "locality": "KNOXVILLE",
    "lat": 36.0514252,
    "lng": -83.8571494
  },
  {
    "name": "Hess Aaron Lee",
    "img": "https://www.homefacts.com/images/offenders/tennessee/thumb/00662410.jpg",
    "address": "5001 MALONEYVILLE RD",
    "locality": "KNOXVILLE",
    "lat": 36.0853331,
    "lng": -83.84035039999999
  },
  {
    "name": "Hickman Randy Neal",
    "img": "https://www.homefacts.com/images/offenders/tennessee/thumb/00327488.jpg",
    "address": "4316 LAMOUR ROAD",
    "locality": "KNOXVILLE",
    "lat": 35.9559327,
    "lng": -83.98194
  },
  {
    "name": "Hicks Burl E",
    "img": "https://www.homefacts.com/images/offenders/tennessee/thumb/00417697.jpg",
    "address": "625 E COPELAND DRIVE",
    "locality": "POWELL",
    "lat": 36.0687813,
    "lng": -84.0084591
  },
  {
    "name": "Hicks John Charles",
    "img": "https://www.homefacts.com/images/offenders/tennessee/thumb/SO017612.jpg",
    "address": "3716 NORTH BROADWAY",
    "locality": "KNOXVILLE",
    "lat": 36.0062882,
    "lng": -83.9264857
  },
  {
    "name": "Hicks John Kevin",
    "img": "https://www.homefacts.com/images/offenders/tennessee/thumb/00571806.jpg",
    "address": "3605 TAZEWELL PIKE",
    "locality": "KNOXVILLE",
    "lat": 36.0330333,
    "lng": -83.9164505
  },
  {
    "name": "Highbaugh John Kent",
    "img": "https://www.homefacts.com/images/offenders/tennessee/thumb/00569647.jpg",
    "address": "1207 YELLOWSTONE RD",
    "locality": "KNOXVILLE",
    "lat": 35.9891476,
    "lng": -83.86651239999999
  },
  {
    "name": "Hillard Jan Brian",
    "img": "https://www.homefacts.com/images/offenders/tennessee/thumb/00243561.jpg",
    "address": "800 MARKET STREET SUITE 23107",
    "locality": "KNOXVILLE",
    "lat": 35.9620244,
    "lng": -83.9170743
  },
  {
    "name": "Hillis Nicholas Wayne",
    "img": "https://www.homefacts.com/images/offenders/tennessee/thumb/00539415.jpg",
    "address": "309 CLOVERFORK DR",
    "locality": "KNOXVILLE",
    "lat": 35.8840419,
    "lng": -84.182035
  },
  {
    "name": "Hines George Raymond",
    "img": "https://www.homefacts.com/images/offenders/tennessee/thumb/00609917.jpg",
    "address": "914 TYSON STREET",
    "locality": "KNOXVILLE",
    "lat": 35.9760467,
    "lng": -83.92608949999999
  },
  {
    "name": "Hodge James Ray",
    "img": "https://www.homefacts.com/images/offenders/tennessee/thumb/00168017.jpg",
    "address": "6358 GROVE DRIVE",
    "locality": "KNOXVILLE",
    "lat": 36.0437589,
    "lng": -83.9460556
  },
  {
    "name": "Hodge Raymond Wallace",
    "img": "https://www.homefacts.com/images/offenders/tennessee/thumb/00148492.jpg",
    "address": "611 BALSAM DRIVE",
    "locality": "KNOXVILLE",
    "lat": 36.0334554,
    "lng": -83.9398676
  },
  {
    "name": "Hoffman Charles Allen",
    "img": "https://www.homefacts.com/images/offenders/tennessee/thumb/00122958.jpg",
    "address": "2101 AMHERST APT A",
    "locality": "KNOXVILLE",
    "lat": 35.9712131,
    "lng": -83.8954096
  },
  {
    "name": "Hoover Robert Gaylord",
    "img": "https://www.homefacts.com/images/offenders/tennessee/thumb/00571090.jpg",
    "address": "418 BROADWAY AVE",
    "locality": "KNOXVILLE",
    "lat": 35.9714074,
    "lng": -83.9235681
  },
  {
    "name": "Hopson Joseph Keely",
    "img": "https://www.homefacts.com/images/offenders/tennessee/thumb/00494799.jpg",
    "address": "8826 HIGHLAND VIEW RD",
    "locality": "KNOXVILLE",
    "lat": 36.1058672,
    "lng": -83.9769
  },
  {
    "name": "Horner Christopher Ryan",
    "img": "https://www.homefacts.com/images/offenders/tennessee/thumb/00470779.jpg",
    "address": "homeless",
    "locality": "KNOXVILLE",
    "lat": 35.965266,
    "lng": -83.923304
  },
  {
    "name": "House Roger Phillip",
    "img": "https://www.homefacts.com/images/offenders/tennessee/thumb/SO008138.jpg",
    "address": "homeless",
    "locality": "KNOXVILLE",
    "lat": 35.965266,
    "lng": -83.923304
  },
  {
    "name": "Houser Craig A",
    "img": "https://www.homefacts.com/images/offenders/tennessee/thumb/00625377.jpg",
    "address": "201 CALLAHAN DR 217",
    "locality": "KNOXVILLE",
    "lat": 36.0266068,
    "lng": -83.998949
  },
  {
    "name": "Houser James Berry",
    "img": "https://www.homefacts.com/images/offenders/tennessee/thumb/00126928.jpg",
    "address": "3218 GROVE RD",
    "locality": "MASCOT",
    "lat": 36.0891562,
    "lng": -83.7435594
  },
  {
    "name": "Houser Jerry Allen",
    "img": "https://www.homefacts.com/images/offenders/tennessee/thumb/00311061.jpg",
    "address": "4511 CLAYTON RD",
    "locality": "KNOXVILLE",
    "lat": 35.925621,
    "lng": -83.92605809999999
  },
  {
    "name": "Howard Mitchell Keith",
    "img": "https://www.homefacts.com/images/offenders/tennessee/thumb/00327405.jpg",
    "address": "418 HOWELL AVE",
    "locality": "KNOXVILLE",
    "lat": 35.9420589,
    "lng": -83.90245580000001
  },
  {
    "name": "Howell James Robert",
    "img": "https://www.homefacts.com/images/offenders/tennessee/thumb/00655133.jpg",
    "address": "5001 MALONEYVILLE RD",
    "locality": "KNOXVILLE",
    "lat": 36.0853331,
    "lng": -83.84035039999999
  },
  {
    "name": "Howell William Lewis",
    "img": "https://www.homefacts.com/images/offenders/tennessee/thumb/00113955.jpg",
    "address": "211 GRATA RD",
    "locality": "KNOXVILLE",
    "lat": 36.007192,
    "lng": -83.8557123
  },
  {
    "name": "Howell Zachary M",
    "img": "https://www.homefacts.com/images/offenders/tennessee/thumb/00404340.jpg",
    "address": "435 BLACK OAK DR",
    "locality": "KNOXVILLE",
    "lat": 36.0118783,
    "lng": -83.9871055
  },
  {
    "name": "Huff Michael Mccoy",
    "img": "https://www.homefacts.com/images/offenders/tennessee/thumb/00573253.jpg",
    "address": "2511 DAVENPORT ROAD",
    "locality": "KNOXVILLE",
    "lat": 35.9536915,
    "lng": -83.9054791
  },
  {
    "name": "Hulsey William",
    "img": "https://www.homefacts.com/images/offenders/tennessee/thumb/SO014164.jpg",
    "address": "7215 BOZEMAN LN",
    "locality": "CORRYTON",
    "lat": 36.0865458,
    "lng": -83.8235234
  },
  {
    "name": "Hunter Bradley",
    "img": "https://www.homefacts.com/images/offenders/tennessee/thumb/00661202.jpg",
    "address": "6845 LANGSTON DR",
    "locality": "KNOXVILLE",
    "lat": 36.069728,
    "lng": -83.9139134
  },
  {
    "name": "Hurst Billy Joe",
    "img": "https://www.homefacts.com/images/offenders/tennessee/thumb/00136389.jpg",
    "address": "homeless",
    "locality": "KNOXVILLE",
    "lat": 35.965266,
    "lng": -83.923304
  },
  {
    "name": "Hurst Ray Lynn",
    "img": "https://www.homefacts.com/images/offenders/tennessee/thumb/00446411.jpg",
    "address": "2415 BOWERS RD",
    "locality": "KNOXVILLE",
    "lat": 35.970527,
    "lng": -83.78668809999999
  },
  {
    "name": "Hurt Logan Eugene",
    "img": "https://www.homefacts.com/images/offenders/tennessee/thumb/00652506.jpg",
    "address": "5837 WHISPER WOODS RD",
    "locality": "KNOXVILLE",
    "lat": 36.095959,
    "lng": -83.8906969
  },
  {
    "name": "Hutchinson Corey",
    "img": "https://www.homefacts.com/images/offenders/tennessee/thumb/00562151.jpg",
    "address": "203 FOUST CARNEY RD",
    "locality": "POWELL",
    "lat": 36.0496105,
    "lng": -84.11818749999999
  },
  {
    "name": "Hutchison Michael Shawn",
    "img": "https://www.homefacts.com/images/offenders/tennessee/thumb/00532468.jpg",
    "address": "1107 ADAIR DR",
    "locality": "KNOXVILLE",
    "lat": 36.0153627,
    "lng": -83.9506766
  },
  {
    "name": "Irvin Mandy M",
    "img": "https://www.homefacts.com/images/offenders/tennessee/thumb/00574998.jpg",
    "address": "1405 KIMBERLIN HEIGHTS RD",
    "locality": "KNOXVILLE",
    "lat": 35.91881559999999,
    "lng": -83.7807997
  },
  {
    "name": "Irwin Joseph E",
    "img": "https://www.homefacts.com/images/offenders/tennessee/thumb/00605074.jpg",
    "address": "116 ASHLEY LANE",
    "locality": "CORRYTON",
    "lat": 36.1681771,
    "lng": -83.8125298
  },
  {
    "name": "Israel Kara Kay",
    "img": "https://www.homefacts.com/images/offenders/tennessee/thumb/00566545.jpg",
    "address": "8126 GREENWELL ROAD",
    "locality": "KNOXVILLE",
    "lat": 36.0872238,
    "lng": -83.9756306
  },
  {
    "name": "Ivey Trent Ray",
    "img": "https://www.homefacts.com/images/offenders/tennessee/thumb/00637492.jpg",
    "address": "5708 DODGE ROAD",
    "locality": "KNOXVILLE",
    "lat": 35.9957847,
    "lng": -84.0017656
  },
  {
    "name": "Jackson Benjamin Frank",
    "img": "https://www.homefacts.com/images/offenders/tennessee/thumb/SO018816.jpg",
    "address": "735 HIGH POINT WAY",
    "locality": "KNOXVILLE",
    "lat": 36.015581,
    "lng": -83.95990100000002
  },
  {
    "name": "Jackson Donald Leroy",
    "img": "https://www.homefacts.com/images/offenders/tennessee/thumb/00089792.jpg",
    "address": "129 HENRY AVE",
    "locality": "KNOXVILLE",
    "lat": 35.9406555,
    "lng": -83.91416
  },
  {
    "name": "Jackson Seth Eric",
    "img": "https://www.homefacts.com/images/offenders/tennessee/thumb/00607678.jpg",
    "address": "9024 KIRKHAVEN LANE",
    "locality": "KNOXVILLE",
    "lat": 36.0162162,
    "lng": -83.7222297
  },
  {
    "name": "Jay David",
    "img": "https://www.homefacts.com/images/offenders/tennessee/thumb/00485855.jpg",
    "address": "302 MEDFORD RD",
    "locality": "KNOXVILLE",
    "lat": 35.90825600000001,
    "lng": -84.080209
  },
  {
    "name": "Jenkins Charles Coty",
    "img": "https://www.homefacts.com/images/offenders/tennessee/thumb/00589867.jpg",
    "address": "6821 LANGSTON DR",
    "locality": "KNOXVILLE",
    "lat": 36.0689799,
    "lng": -83.9157176
  },
  {
    "name": "Johnson James Lewis",
    "img": "https://www.homefacts.com/images/offenders/tennessee/thumb/SO009395.jpg",
    "address": "homeless",
    "locality": "KNOXVILLE",
    "lat": 35.965266,
    "lng": -83.923304
  },
  {
    "name": "Johnson John Francis",
    "img": "https://www.homefacts.com/images/offenders/tennessee/thumb/SO015431.jpg",
    "address": "4735 OLD GUINN RD",
    "locality": "KNOXVILLE",
    "lat": 35.9781665,
    "lng": -84.1902626
  },
  {
    "name": "Johnson Kathy Denise",
    "img": "https://www.homefacts.com/images/offenders/tennessee/thumb/SO011312.jpg",
    "address": "8904 A DRIVE",
    "locality": "MASCOT",
    "lat": 36.0735233,
    "lng": -83.7621463
  },
  {
    "name": "Johnson Michael Eugene",
    "img": "https://www.homefacts.com/images/offenders/tennessee/thumb/00093374.jpg",
    "address": "2218 MCCALLA AVE",
    "locality": "KNOXVILLE",
    "lat": 35.9788177,
    "lng": -83.8996832
  },
  {
    "name": "Johnson Paul Anthony",
    "img": "https://www.homefacts.com/images/offenders/tennessee/thumb/00540115.jpg",
    "address": "8904 A DRIVE",
    "locality": "MASCOT",
    "lat": 36.0735233,
    "lng": -83.7621463
  },
  {
    "name": "Johnson Roy",
    "img": "https://www.homefacts.com/images/offenders/tennessee/thumb/00323488.jpg",
    "address": "homeless",
    "locality": "KNOXVILLE",
    "lat": 35.965266,
    "lng": -83.923304
  },
  {
    "name": "Johnson Tylar S.",
    "img": "https://www.homefacts.com/images/offenders/tennessee/thumb/00645738.jpg",
    "address": "5001 MALONEYVILLE RD",
    "locality": "KNOXVILLE",
    "lat": 36.0853331,
    "lng": -83.84035039999999
  },
  {
    "name": "Johnston Ralph",
    "img": "https://www.homefacts.com/images/offenders/tennessee/thumb/00487803.jpg",
    "address": "5816 WEXFORD LN",
    "locality": "KNOXVILLE",
    "lat": 35.9728039,
    "lng": -84.0395436
  },
  {
    "name": "Jones Dayton",
    "img": "https://www.homefacts.com/images/offenders/tennessee/thumb/SO019148.jpg",
    "address": "5001 MALONEYVILLE RD",
    "locality": "KNOXVILLE",
    "lat": 36.0853331,
    "lng": -83.84035039999999
  },
  {
    "name": "Jones Joshua Ray",
    "img": "https://www.homefacts.com/images/offenders/tennessee/thumb/00335213.jpg",
    "address": "5001 MALONEYVILLE RD",
    "locality": "KNOXVILLE",
    "lat": 36.0853331,
    "lng": -83.84035039999999
  },
  {
    "name": "Jones Kristi Marie",
    "img": "https://www.homefacts.com/images/offenders/tennessee/thumb/00516927.jpg",
    "address": "2544 BYINGTON SOLWAY RD LOT 8",
    "locality": "KNOXVILLE",
    "lat": 35.9680663,
    "lng": -84.11669160000001
  },
  {
    "name": "Jones Leonard Herman",
    "img": "https://www.homefacts.com/images/offenders/tennessee/thumb/00480009.jpg",
    "address": "homeless",
    "locality": "KNOXVILLE",
    "lat": 35.965266,
    "lng": -83.923304
  },
  {
    "name": "Jones Terry Steven",
    "img": "https://www.homefacts.com/images/offenders/tennessee/thumb/00329035.jpg",
    "address": "homeless",
    "locality": "KNOXVILLE",
    "lat": 35.965266,
    "lng": -83.923304
  },
  {
    "name": "Jones William Harold",
    "img": "https://www.homefacts.com/images/offenders/tennessee/thumb/00227108.jpg",
    "address": "10303 THORN GROVE PIKE 1B",
    "locality": "STRAWBERRY PLAINS",
    "lat": 36.0041218,
    "lng": -83.68314149999999
  },
  {
    "name": "Jordan Rashan L",
    "img": "https://www.homefacts.com/images/offenders/tennessee/thumb/00381138.jpg",
    "address": "800 MARKET STREET",
    "locality": "KNOXVILLE",
    "lat": 35.9620244,
    "lng": -83.9170743
  },
  {
    "name": "Jordan William John",
    "img": "https://www.homefacts.com/images/offenders/tennessee/thumb/00150050.jpg",
    "address": "7722 COTTON PATCH ROAD",
    "locality": "CORRYTON",
    "lat": 36.1255042,
    "lng": -83.86859910000001
  },
  {
    "name": "Jose-manuel Emilio",
    "img": "https://www.homefacts.com/images/offenders/tennessee/thumb/00660172.jpg",
    "address": "DEPORTED",
    "locality": "KNOXVILLE",
    "lat": 35.965266,
    "lng": -83.923304
  },
  {
    "name": "Julian Wayne Wilson",
    "img": "https://www.homefacts.com/images/offenders/tennessee/thumb/00325978.jpg",
    "address": "homeless",
    "locality": "KNOXVILLE",
    "lat": 35.965266,
    "lng": -83.923304
  },
  {
    "name": "Justus James Randy",
    "img": "https://www.homefacts.com/images/offenders/tennessee/thumb/00583438.jpg",
    "address": "1701 BICKERSTAFF BLVD",
    "locality": "KNOXVILLE",
    "lat": 35.881578,
    "lng": -84.04349529999999
  },
  {
    "name": "Karnes Collin Alexander",
    "img": "https://www.homefacts.com/images/offenders/tennessee/thumb/00661124.jpg",
    "address": "1215 LULA BELL DR",
    "locality": "POWELL",
    "lat": 36.0405197,
    "lng": -84.0291051
  },
  {
    "name": "Kasson Charles Andrew",
    "img": "https://www.homefacts.com/images/offenders/tennessee/thumb/00410269.jpg",
    "address": "1780 TARKLIN VALLEY RD",
    "locality": "KNOXVILLE",
    "lat": 35.8451063,
    "lng": -83.849736
  },
  {
    "name": "Keathley Darren David",
    "img": "https://www.homefacts.com/images/offenders/tennessee/thumb/00614334.jpg",
    "address": "221  MOOSE TRAIL LANE",
    "locality": "POWELL",
    "lat": 36.0318578,
    "lng": -84.027655
  },
  {
    "name": "Kendall Donald Gene",
    "img": "https://www.homefacts.com/images/offenders/tennessee/thumb/00498547.jpg",
    "address": "800 MARKET ST.SUITE 2-3107 FED",
    "locality": "KNOXVILLE",
    "lat": 36.316233,
    "lng": -82.3708709
  },
  {
    "name": "Kendrick Brian Wayne",
    "img": "https://www.homefacts.com/images/offenders/tennessee/thumb/00529316.jpg",
    "address": "8709 ASHEVILLE HWY",
    "locality": "KNOXVILLE",
    "lat": 36.0268304,
    "lng": -83.7332445
  },
  {
    "name": "Kennard Mark William",
    "img": "https://www.homefacts.com/images/offenders/tennessee/thumb/00360482.jpg",
    "address": "259 ASHVILLE HWY  108",
    "locality": "STRAWBERRY PLAINS",
    "lat": 36.0176393,
    "lng": -83.6229357
  },
  {
    "name": "Kennedy Austin Dale",
    "img": "https://www.homefacts.com/images/offenders/tennessee/thumb/00606208.jpg",
    "address": "6908 MARTIN MILL PK APT 1",
    "locality": "KNOXVILLE",
    "lat": 35.8910626,
    "lng": -83.9114455
  },
  {
    "name": "Kephart Colton Lee",
    "img": "https://www.homefacts.com/images/offenders/tennessee/thumb/00564318.jpg",
    "address": "800 MARKET STREET",
    "locality": "KNOXVILLE",
    "lat": 35.9620244,
    "lng": -83.9170743
  },
  {
    "name": "Ketron Jimmy Ray",
    "img": "https://www.homefacts.com/images/offenders/tennessee/thumb/00016268.jpg",
    "address": "9240 PARK WEST BLVD RM 204",
    "locality": "KNOXVILLE",
    "lat": 35.9181616,
    "lng": -84.0945868
  },
  {
    "name": "Kidd Richard Allen",
    "img": "https://www.homefacts.com/images/offenders/tennessee/thumb/00247211.jpg",
    "address": "5001 MALONEYVILLE RD",
    "locality": "KNOXVILLE",
    "lat": 36.0853331,
    "lng": -83.84035039999999
  },
  {
    "name": "King Floyd James",
    "img": "https://www.homefacts.com/images/offenders/tennessee/thumb/00241512.jpg",
    "address": "5001 MALONEYVILLE RD",
    "locality": "KNOXVILLE",
    "lat": 36.0853331,
    "lng": -83.84035039999999
  },
  {
    "name": "King Jackie Cornelius",
    "img": "https://www.homefacts.com/images/offenders/tennessee/thumb/00454370.jpg",
    "address": "4544 HERMAN SNYDER WAY",
    "locality": "STRAWBERRY PLAINS",
    "lat": 36.0121652,
    "lng": -83.64507789999999
  },
  {
    "name": "King James Leon",
    "img": "https://www.homefacts.com/images/offenders/tennessee/thumb/00160738.jpg",
    "address": "2305 SHIPETOWN ROAD",
    "locality": "MASCOT",
    "lat": 36.0715422,
    "lng": -83.7588798
  },
  {
    "name": "King Travis Lynn",
    "img": "https://www.homefacts.com/images/offenders/tennessee/thumb/00577656.jpg",
    "address": "homeless",
    "locality": "KNOXVILLE",
    "lat": 35.965266,
    "lng": -83.923304
  },
  {
    "name": "Kitchell Daniel",
    "img": "https://www.homefacts.com/images/offenders/tennessee/thumb/00579258.jpg",
    "address": "2332 WOODS SMITH ROAD",
    "locality": "KNOXVILLE",
    "lat": 35.9763117,
    "lng": -84.03334269999999
  },
  {
    "name": "Knaff Robert S",
    "img": "https://www.homefacts.com/images/offenders/tennessee/thumb/00349250.jpg",
    "address": "6116 STRAWBERRY PLAINS",
    "locality": "KNOXVILLE",
    "lat": 36.06314140000001,
    "lng": -83.6860109
  },
  {
    "name": "Kornreich Mark Aaron",
    "img": "https://www.homefacts.com/images/offenders/tennessee/thumb/00158396.jpg",
    "address": "8431 FOUST HOLLOW RD",
    "locality": "KNOXVILLE",
    "lat": 36.1275777,
    "lng": -83.9232452
  },
  {
    "name": "Kyle Kevin Jermichael",
    "img": "https://www.homefacts.com/images/offenders/tennessee/thumb/00445460.jpg",
    "address": "4515 MARTIN MILL PIKE A",
    "locality": "KNOXVILLE",
    "lat": 35.9298552,
    "lng": -83.9123268
  },
  {
    "name": "Lafayette Riviera",
    "img": "https://www.homefacts.com/images/offenders/tennessee/thumb/SO013489.jpg",
    "address": "homeless",
    "locality": "KNOXVILLE",
    "lat": 35.965266,
    "lng": -83.923304
  },
  {
    "name": "Laguna Ivan",
    "img": "https://www.homefacts.com/images/offenders/tennessee/thumb/00604248.jpg",
    "address": "DEPORTED",
    "locality": "KNOXVILLE",
    "lat": 35.965266,
    "lng": -83.923304
  },
  {
    "name": "Lamb Meccia Moneik",
    "img": "https://www.homefacts.com/images/offenders/tennessee/thumb/00376583.jpg",
    "address": "homeless",
    "locality": "KNOXVILLE",
    "lat": 35.965266,
    "lng": -83.923304
  },
  {
    "name": "Lane Roger Merrill",
    "img": "https://www.homefacts.com/images/offenders/tennessee/thumb/00607983.jpg",
    "address": "3177 LONG HOLLOW ROAD",
    "locality": "POWELL",
    "lat": 36.0999857,
    "lng": -83.9741177
  },
  {
    "name": "Lane-austin Taquan Aruel",
    "img": "https://www.homefacts.com/images/offenders/tennessee/thumb/SO019837.jpg",
    "address": "5001 MALONEYVILLE RD",
    "locality": "KNOXVILLE",
    "lat": 36.0853331,
    "lng": -83.84035039999999
  },
  {
    "name": "Lang Christopher",
    "img": "https://www.homefacts.com/images/offenders/tennessee/thumb/00488612.jpg",
    "address": "6019 N APOPKA DR",
    "locality": "KNOXVILLE",
    "lat": 35.96371329999999,
    "lng": -83.794917
  },
  {
    "name": "Larson Brandon Paul",
    "img": "https://www.homefacts.com/images/offenders/tennessee/thumb/00535934.jpg",
    "address": "8235 TANGLE GROVE LN",
    "locality": "POWELL",
    "lat": 36.0411449,
    "lng": -84.0516767
  },
  {
    "name": "Lauderdale Carey",
    "img": "https://www.homefacts.com/images/offenders/tennessee/thumb/00597776.jpg",
    "address": "2709 RIFLE RANGE DR LOT 21",
    "locality": "KNOXVILLE",
    "lat": 36.0522412,
    "lng": -83.9419492
  },
  {
    "name": "Lauderdale Phillip Carey",
    "img": "https://www.homefacts.com/images/offenders/tennessee/thumb/00550244.jpg",
    "address": "2544 BYINGTON SOLWAY RD 32B",
    "locality": "KNOXVILLE",
    "lat": 35.9685114,
    "lng": -84.1178765
  },
  {
    "name": "Lawhorn Robert Michael",
    "img": "https://www.homefacts.com/images/offenders/tennessee/thumb/00625264.jpg",
    "address": "1002 FARRINGTON DR",
    "locality": "KNOXVILLE",
    "lat": 35.8908924,
    "lng": -84.066625
  },
  {
    "name": "Lawson Chancey Craig",
    "img": "https://www.homefacts.com/images/offenders/tennessee/thumb/00539232.jpg",
    "address": "5001 MALONEYVILLE RD",
    "locality": "KNOXVILLE",
    "lat": 36.0853331,
    "lng": -83.84035039999999
  },
  {
    "name": "Lee Michael Jerome",
    "img": "https://www.homefacts.com/images/offenders/tennessee/thumb/00126924.jpg",
    "address": "3920 GALBA RD 39",
    "locality": "KNOXVILLE",
    "lat": 36.0040287,
    "lng": -83.9524903
  },
  {
    "name": "Lewis Michael",
    "img": "https://www.homefacts.com/images/offenders/tennessee/thumb/00518559.jpg",
    "address": "2329 DODSON AVE APTA",
    "locality": "KNOXVILLE",
    "lat": 35.9873388,
    "lng": -83.904082
  },
  {
    "name": "Lewis Tyriek Ross",
    "img": "https://www.homefacts.com/images/offenders/tennessee/thumb/SO019446.jpg",
    "address": "1613 LECONTE RD",
    "locality": "KNOXVILLE",
    "lat": 36.02179539999999,
    "lng": -83.87026709999999
  },
  {
    "name": "Liddy Raymond Joseph",
    "img": "https://www.homefacts.com/images/offenders/tennessee/thumb/SO018752.jpg",
    "address": "800 MARKET ST",
    "locality": "KNOXVILLE",
    "lat": 35.9620244,
    "lng": -83.9170743
  },
  {
    "name": "Linder Robert Morton",
    "img": "https://www.homefacts.com/images/offenders/tennessee/thumb/00380769.jpg",
    "address": "2902 FAIRWAY",
    "locality": "KNOXVILLE",
    "lat": 36.0124866,
    "lng": -83.8985244
  },
  {
    "name": "Little Gary Wade",
    "img": "https://www.homefacts.com/images/offenders/tennessee/thumb/00483016.jpg",
    "address": "5701 LUTIE RD",
    "locality": "KNOXVILLE",
    "lat": 36.019296,
    "lng": -83.97157690000002
  },
  {
    "name": "Livingston Darryl Nathaniel",
    "img": "https://www.homefacts.com/images/offenders/tennessee/thumb/00591965.jpg",
    "address": "8000 BRANSON RD",
    "locality": "CORRYTON",
    "lat": 36.1376716,
    "lng": -83.8510089
  },
  {
    "name": "Logsdon Christopher Matthew",
    "img": "https://www.homefacts.com/images/offenders/tennessee/thumb/00522404.jpg",
    "address": "2825 E 5TH AVE APT A",
    "locality": "KNOXVILLE",
    "lat": 35.9923985,
    "lng": -83.8910077
  },
  {
    "name": "Lomax Peter Romero",
    "img": "https://www.homefacts.com/images/offenders/tennessee/thumb/00490885.jpg",
    "address": "1525 HAZEN STREET",
    "locality": "KNOXVILLE",
    "lat": 35.9684237,
    "lng": -83.9039371
  },
  {
    "name": "Long Robert Harris",
    "img": "https://www.homefacts.com/images/offenders/tennessee/thumb/00574956.jpg",
    "address": "4328 IMMANUEL STREET",
    "locality": "KNOXVILLE",
    "lat": 35.9304281,
    "lng": -83.91490739999999
  },
  {
    "name": "Long Vint General",
    "img": "https://www.homefacts.com/images/offenders/tennessee/thumb/00249164.jpg",
    "address": "540 BILLY  NEAL LANE",
    "locality": "KNOXVILLE",
    "lat": 36.0104433,
    "lng": -83.7495239
  },
  {
    "name": "Lopez Walfre",
    "img": "https://www.homefacts.com/images/offenders/tennessee/thumb/00651523.jpg",
    "address": "DEPORTED",
    "locality": "KNOXVILLE",
    "lat": 35.965266,
    "lng": -83.923304
  },
  {
    "name": "Loveday Arlie Ernest",
    "img": "https://www.homefacts.com/images/offenders/tennessee/thumb/00550653.jpg",
    "address": "6803 SEVIERVILLE PIKE",
    "locality": "KNOXVILLE",
    "lat": 35.9197551,
    "lng": -83.84765709999999
  },
  {
    "name": "Loveday Samuel Wayne",
    "img": "https://www.homefacts.com/images/offenders/tennessee/thumb/00293318.jpg",
    "address": "homeless",
    "locality": "KNOXVILLE",
    "lat": 35.965266,
    "lng": -83.923304
  },
  {
    "name": "Loy Travis Albert",
    "img": "https://www.homefacts.com/images/offenders/tennessee/thumb/00584354.jpg",
    "address": "8309 WASHINGTON PK",
    "locality": "CORRYTON",
    "lat": 36.114211,
    "lng": -83.8061841
  },
  {
    "name": "Loy William Joseph",
    "img": "https://www.homefacts.com/images/offenders/tennessee/thumb/00449103.jpg",
    "address": "6300 ASHEVILLE HWY 344",
    "locality": "KNOXVILLE",
    "lat": 36.01678440000001,
    "lng": -83.8236359
  },
  {
    "name": "Lundy Noah Harrison",
    "img": "https://www.homefacts.com/images/offenders/tennessee/thumb/00072638.jpg",
    "address": "6300 ASHEVILLE HWY 343",
    "locality": "KNOXVILLE",
    "lat": 36.01678440000001,
    "lng": -83.8236359
  },
  {
    "name": "Mackerson Kevin",
    "img": "https://www.homefacts.com/images/offenders/tennessee/thumb/00637502.jpg",
    "address": "2105 MAJOR AVE",
    "locality": "KNOXVILLE",
    "lat": 35.9717538,
    "lng": -83.9507405
  },
  {
    "name": "Macri Robert Pasqual",
    "img": "https://www.homefacts.com/images/offenders/tennessee/thumb/SO013896.jpg",
    "address": "804 OLD PIONEER TRAIL  NUMBR 1",
    "locality": "KNOXVILLE",
    "lat": 35.8986988,
    "lng": -84.0671978
  },
  {
    "name": "Madgett Alvin Lee",
    "img": "https://www.homefacts.com/images/offenders/tennessee/thumb/00421438.jpg",
    "address": "8513 HOWELL LANE",
    "locality": "KNOXVILLE",
    "lat": 36.0628294,
    "lng": -83.7737302
  },
  {
    "name": "Mankin Jeffrey Lee",
    "img": "https://www.homefacts.com/images/offenders/tennessee/thumb/00414711.jpg",
    "address": "homeless",
    "locality": "KNOXVILLE",
    "lat": 35.965266,
    "lng": -83.923304
  },
  {
    "name": "Manzano Fernando V",
    "img": "https://www.homefacts.com/images/offenders/tennessee/thumb/00516245.jpg",
    "address": "800 MARKET ST",
    "locality": "KNOXVILLE",
    "lat": 35.9620244,
    "lng": -83.9170743
  },
  {
    "name": "Maples Earl Rotaw",
    "img": "https://www.homefacts.com/images/offenders/tennessee/thumb/00584199.jpg",
    "address": "1322 WEST BAXTER AVE",
    "locality": "KNOXVILLE",
    "lat": 35.9734904,
    "lng": -83.9407884
  },
  {
    "name": "Maples Timothy L",
    "img": "https://www.homefacts.com/images/offenders/tennessee/thumb/00445658.jpg",
    "address": "8533 OLD RUTLEDGE PIKE",
    "locality": "KNOXVILLE",
    "lat": 36.0649409,
    "lng": -83.77797439999999
  },
  {
    "name": "Marsh Charlie Earl",
    "img": "https://www.homefacts.com/images/offenders/tennessee/thumb/00402265.jpg",
    "address": "homeless",
    "locality": "KNOXVILLE",
    "lat": 35.965266,
    "lng": -83.923304
  },
  {
    "name": "Marshall Steven Ray",
    "img": "https://www.homefacts.com/images/offenders/tennessee/thumb/00541574.jpg",
    "address": "8408 DRESDEN DRIVE",
    "locality": "KNOXVILLE",
    "lat": 35.939013,
    "lng": -84.06682909999999
  },
  {
    "name": "Martin Charles William",
    "img": "https://www.homefacts.com/images/offenders/tennessee/thumb/00488224.jpg",
    "address": "1121 WOODCREST DRIVE",
    "locality": "KNOXVILLE",
    "lat": 36.0173943,
    "lng": -83.95144789999999
  },
  {
    "name": "Martin Christopher Michael",
    "img": "https://www.homefacts.com/images/offenders/tennessee/thumb/00496993.jpg",
    "address": "929 ATLANTIC AVE",
    "locality": "KNOXVILLE",
    "lat": 35.9991276,
    "lng": -83.9306558
  },
  {
    "name": "Martin Cody Allen",
    "img": "https://www.homefacts.com/images/offenders/tennessee/thumb/00600316.jpg",
    "address": "7215 ASHEVILLE HWY 21",
    "locality": "KNOXVILLE",
    "lat": 36.0206746,
    "lng": -83.7899171
  },
  {
    "name": "Martin Damen",
    "img": "https://www.homefacts.com/images/offenders/tennessee/thumb/00408205.jpg",
    "address": "05001 MALONEYVILLE RD",
    "locality": "KNOXVILLE",
    "lat": 36.0841221,
    "lng": -83.84094809999999
  },
  {
    "name": "Martinez Orlando Moreno",
    "img": "https://www.homefacts.com/images/offenders/tennessee/thumb/00615434.jpg",
    "address": "324 PROSPERITY DRIVE",
    "locality": "KNOXVILLE",
    "lat": 35.9232411,
    "lng": -84.0793813
  },
  {
    "name": "Marusa Jeffrey Martin",
    "img": "https://www.homefacts.com/images/offenders/tennessee/thumb/00602392.jpg",
    "address": "homeless",
    "locality": "KNOXVILLE",
    "lat": 35.965266,
    "lng": -83.923304
  },
  {
    "name": "Mathers John Allen",
    "img": "https://www.homefacts.com/images/offenders/tennessee/thumb/00566825.jpg",
    "address": "258 HARRY LANE BLVD RM 306",
    "locality": "KNOXVILLE",
    "lat": 35.9176926,
    "lng": -84.0881945
  },
  {
    "name": "Mathis Mark Alan",
    "img": "https://www.homefacts.com/images/offenders/tennessee/thumb/00407466.jpg",
    "address": "1517 BLACKWOOD DRIVE",
    "locality": "KNOXVILLE",
    "lat": 35.9527119,
    "lng": -84.0900207
  },
  {
    "name": "Matthews Paul Greer",
    "img": "https://www.homefacts.com/images/offenders/tennessee/thumb/00362733.jpg",
    "address": "4916 HOLSTON DR",
    "locality": "KNOXVILLE",
    "lat": 36.0034141,
    "lng": -83.852003
  },
  {
    "name": "Maybaum Benjamin Edward",
    "img": "https://www.homefacts.com/images/offenders/tennessee/thumb/00469718.jpg",
    "address": "113 KERRI DR",
    "locality": "STRAWBERRY PLAINS",
    "lat": 36.058774,
    "lng": -83.63920859999999
  },
  {
    "name": "Mcbee Jordan Seth",
    "img": "https://www.homefacts.com/images/offenders/tennessee/thumb/00605503.jpg",
    "address": "1306 E WALNUT GROVE DRIVE",
    "locality": "KNOXVILLE",
    "lat": 36.0113175,
    "lng": -83.9432049
  },
  {
    "name": "Mcclain Roger E",
    "img": "https://www.homefacts.com/images/offenders/tennessee/thumb/00555519.jpg",
    "address": "813 BROWN ROAD",
    "locality": "KNOXVILLE",
    "lat": 35.9172246,
    "lng": -83.9089266
  },
  {
    "name": "Mccoy Patrick Carey",
    "img": "https://www.homefacts.com/images/offenders/tennessee/thumb/00574100.jpg",
    "address": "2015 BELLE TERRA RD",
    "locality": "KNOXVILLE",
    "lat": 35.9545377,
    "lng": -84.0532245
  },
  {
    "name": "Mcghee Robert Lee",
    "img": "https://www.homefacts.com/images/offenders/tennessee/thumb/SO019852.jpg",
    "address": "2435 HOITT AVE",
    "locality": "KNOXVILLE",
    "lat": 35.9943778,
    "lng": -83.9074011
  },
  {
    "name": "Mcgill Jeffrey Allen",
    "img": "https://www.homefacts.com/images/offenders/tennessee/thumb/00144605.jpg",
    "address": "7309 TEXAS VALLEY RD",
    "locality": "KNOXVILLE",
    "lat": 36.1555838,
    "lng": -83.8923032
  },
  {
    "name": "Mcgill Lena Victoria",
    "img": "https://www.homefacts.com/images/offenders/tennessee/thumb/00645678.jpg",
    "address": "805 CEDAR LANE UNIT G27",
    "locality": "KNOXVILLE",
    "lat": 36.0222801,
    "lng": -83.962867
  },
  {
    "name": "Mcgill Walter",
    "img": "https://www.homefacts.com/images/offenders/tennessee/thumb/00328756.jpg",
    "address": "2505 MALONEY RD",
    "locality": "KNOXVILLE",
    "lat": 35.9089507,
    "lng": -83.9391534
  },
  {
    "name": "Mchaffie Carlos Eugene",
    "img": "https://www.homefacts.com/images/offenders/tennessee/thumb/00234975.jpg",
    "address": "324 BURRIS RD",
    "locality": "KNOXVILLE",
    "lat": 36.035056,
    "lng": -83.73777
  },
  {
    "name": "Mckinney Bobby Eugene",
    "img": "https://www.homefacts.com/images/offenders/tennessee/thumb/SO018794.jpg",
    "address": "6300 ASHEVILLE HWY 353",
    "locality": "KNOXVILLE",
    "lat": 36.01678440000001,
    "lng": -83.8236359
  },
  {
    "name": "Mcnair Broderick L",
    "img": "https://www.homefacts.com/images/offenders/tennessee/thumb/00309956.jpg",
    "address": "4412 PLYMOUTH DRIVE",
    "locality": "KNOXVILLE",
    "lat": 35.9918013,
    "lng": -83.8590115
  },
  {
    "name": "Mctigrit Mickey Joe",
    "img": "https://www.homefacts.com/images/offenders/tennessee/thumb/00434548.jpg",
    "address": "1207 KARNS AVE 5",
    "locality": "KNOXVILLE",
    "lat": 36.0109852,
    "lng": -83.9280404
  },
  {
    "name": "Medario Leobardo Martinez",
    "img": "https://www.homefacts.com/images/offenders/tennessee/thumb/00447320.jpg",
    "address": "324 PROSPERITY DRIVE",
    "locality": "KNOXVILLE",
    "lat": 35.9232411,
    "lng": -84.0793813
  },
  {
    "name": "Melton John Barry",
    "img": "https://www.homefacts.com/images/offenders/tennessee/thumb/00108801.jpg",
    "address": "3100 ROBERTS RD G11",
    "locality": "KNOXVILLE",
    "lat": 36.0795961,
    "lng": -83.77497410000001
  },
  {
    "name": "Meredith Billy Joe",
    "img": "https://www.homefacts.com/images/offenders/tennessee/thumb/00619929.jpg",
    "address": "homeless",
    "locality": "KNOXVILLE",
    "lat": 35.965266,
    "lng": -83.923304
  },
  {
    "name": "Merriman Clyde Raymond",
    "img": "https://www.homefacts.com/images/offenders/tennessee/thumb/00325065.jpg",
    "address": "1201 ADAIR DRIVE",
    "locality": "KNOXVILLE",
    "lat": 36.0158305,
    "lng": -83.9495681
  },
  {
    "name": "Merritt Christopher Darryl",
    "img": "https://www.homefacts.com/images/offenders/tennessee/thumb/00390329.jpg",
    "address": "7726 MISTY POINTE WAY",
    "locality": "KNOXVILLE",
    "lat": 35.9914746,
    "lng": -83.749425
  },
  {
    "name": "Metcalfe Jeremy Ray",
    "img": "https://www.homefacts.com/images/offenders/tennessee/thumb/00627216.jpg",
    "address": "5820 GRAY LEEF CIRCLE",
    "locality": "KNOXVILLE",
    "lat": 36.0960896,
    "lng": -83.8894773
  },
  {
    "name": "Middleton Gillespie Timbala Y",
    "img": "https://www.homefacts.com/images/offenders/tennessee/thumb/00371129.jpg",
    "address": "450 OLD EDGEMOOR LANE",
    "locality": "POWELL",
    "lat": 36.0339662,
    "lng": -84.1311258
  },
  {
    "name": "Middleton Matthew Duane",
    "img": "https://www.homefacts.com/images/offenders/tennessee/thumb/00475494.jpg",
    "address": "6833 WARD RD",
    "locality": "KNOXVILLE",
    "lat": 36.0333025,
    "lng": -83.9877504
  },
  {
    "name": "Middleton Michael Rhea",
    "img": "https://www.homefacts.com/images/offenders/tennessee/thumb/SO012356.jpg",
    "address": "800 MARKET STREET",
    "locality": "KNOXVILLE",
    "lat": 35.9620244,
    "lng": -83.9170743
  },
  {
    "name": "Milan Serena Rae",
    "img": "https://www.homefacts.com/images/offenders/tennessee/thumb/00570392.jpg",
    "address": "2440 BISHOPS BRIDGE RD",
    "locality": "KNOXVILLE",
    "lat": 35.8722618,
    "lng": -84.0656398
  },
  {
    "name": "Miles Richard Douglas",
    "img": "https://www.homefacts.com/images/offenders/tennessee/thumb/00275322.jpg",
    "address": "3201 RIFLE RANGE RD LOT 12",
    "locality": "KNOXVILLE",
    "lat": 36.0564551,
    "lng": -83.92878929999999
  },
  {
    "name": "Miller Anthony",
    "img": "https://www.homefacts.com/images/offenders/tennessee/thumb/SO000227.jpg",
    "address": "2206 ASTER ROAD",
    "locality": "KNOXVILLE",
    "lat": 36.0355291,
    "lng": -83.9446275
  },
  {
    "name": "Mills Sean August",
    "img": "https://www.homefacts.com/images/offenders/tennessee/thumb/SO001058.jpg",
    "address": "12409 TURKEY CROSSING LN",
    "locality": "KNOXVILLE",
    "lat": 35.9129431,
    "lng": -84.2247715
  },
  {
    "name": "Milton Thomas D",
    "img": "https://www.homefacts.com/images/offenders/tennessee/thumb/00625746.jpg",
    "address": "homeless",
    "locality": "KNOXVILLE",
    "lat": 35.965266,
    "lng": -83.923304
  },
  {
    "name": "Mitchell Charles Edward",
    "img": "https://www.homefacts.com/images/offenders/tennessee/thumb/00220276.jpg",
    "address": "5001 MALONEYVILLE ROAD",
    "locality": "KNOXVILLE",
    "lat": 36.0853331,
    "lng": -83.84035039999999
  },
  {
    "name": "Monholland Robert Henry",
    "img": "https://www.homefacts.com/images/offenders/tennessee/thumb/00126925.jpg",
    "address": "711 MURRAY ROAD 4",
    "locality": "KNOXVILLE",
    "lat": 36.0123115,
    "lng": -83.9949165
  },
  {
    "name": "Monroe Darryl Glenn",
    "img": "https://www.homefacts.com/images/offenders/tennessee/thumb/00365073.jpg",
    "address": "5115 ROCKCREST RD",
    "locality": "KNOXVILLE",
    "lat": 36.0273561,
    "lng": -83.942039
  },
  {
    "name": "Monroe Terrence",
    "img": "https://www.homefacts.com/images/offenders/tennessee/thumb/00604788.jpg",
    "address": "homeless",
    "locality": "KNOXVILLE",
    "lat": 35.965266,
    "lng": -83.923304
  },
  {
    "name": "Montgomery Kevin Lynn",
    "img": "https://www.homefacts.com/images/offenders/tennessee/thumb/00472536.jpg",
    "address": "214 BLANKENSHIP LANE",
    "locality": "KNOXVILLE",
    "lat": 36.03239629999999,
    "lng": -83.7549452
  },
  {
    "name": "Moore Daniel Eugene",
    "img": "https://www.homefacts.com/images/offenders/tennessee/thumb/00314319.jpg",
    "address": "homeless",
    "locality": "KNOXVILLE",
    "lat": 35.965266,
    "lng": -83.923304
  },
  {
    "name": "Moore Daniel Gerard",
    "img": "https://www.homefacts.com/images/offenders/tennessee/thumb/SO004578.jpg",
    "address": "9749 SMOKEY ROW RD",
    "locality": "STRAWBERRY PLAINS",
    "lat": 36.0328954,
    "lng": -83.6951843
  },
  {
    "name": "Moore Jackie Lee",
    "img": "https://www.homefacts.com/images/offenders/tennessee/thumb/00348948.jpg",
    "address": "206 GAYVIEW DRIVE APT 39",
    "locality": "KNOXVILLE",
    "lat": 35.9289517,
    "lng": -83.9042242
  },
  {
    "name": "Moore Rex Allen",
    "img": "https://www.homefacts.com/images/offenders/tennessee/thumb/00138052.jpg",
    "address": "05001 MALONEYVILLE RD",
    "locality": "KNOXVILLE",
    "lat": 36.0841221,
    "lng": -83.84094809999999
  },
  {
    "name": "Moore Robert Jefferson",
    "img": "https://www.homefacts.com/images/offenders/tennessee/thumb/00333783.jpg",
    "address": "5001 MALONEYVILLE RD",
    "locality": "KNOXVILLE",
    "lat": 36.0853331,
    "lng": -83.84035039999999
  },
  {
    "name": "Moore William Glenn",
    "img": "https://www.homefacts.com/images/offenders/tennessee/thumb/00222989.jpg",
    "address": "5123 MCGINNIS RD",
    "locality": "CORRYTON",
    "lat": 36.103062,
    "lng": -83.803563
  },
  {
    "name": "Morgan Thomas Daniel",
    "img": "https://www.homefacts.com/images/offenders/tennessee/thumb/00351394.jpg",
    "address": "5001 MALONEYVILLE RD",
    "locality": "KNOXVILLE",
    "lat": 36.0853331,
    "lng": -83.84035039999999
  },
  {
    "name": "Morin Vandy Noel",
    "img": "https://www.homefacts.com/images/offenders/tennessee/thumb/00409424.jpg",
    "address": "1543 DUTCH VALLEY DR",
    "locality": "KNOXVILLE",
    "lat": 36.0116652,
    "lng": -83.94072930000002
  },
  {
    "name": "Morrison Charles Steven",
    "img": "https://www.homefacts.com/images/offenders/tennessee/thumb/00413699.jpg",
    "address": "181 CEDAR CIRCLE",
    "locality": "POWELL",
    "lat": 36.0454121,
    "lng": -84.12165730000001
  },
  {
    "name": "Morrison Michael Scott",
    "img": "https://www.homefacts.com/images/offenders/tennessee/thumb/00350036.jpg",
    "address": "4141 MASCARENE RD",
    "locality": "KNOXVILLE",
    "lat": 35.9690052,
    "lng": -84.0078733
  },
  {
    "name": "Morton Andrew Sterchi",
    "img": "https://www.homefacts.com/images/offenders/tennessee/thumb/00412411.jpg",
    "address": "7117 CRESTHILL DRIVE",
    "locality": "KNOXVILLE",
    "lat": 35.9286607,
    "lng": -84.0224952
  },
  {
    "name": "Morton Joseph Adam",
    "img": "https://www.homefacts.com/images/offenders/tennessee/thumb/00580825.jpg",
    "address": "5121 MCINTYRE RD",
    "locality": "KNOXVILLE",
    "lat": 36.0199944,
    "lng": -83.865777
  },
  {
    "name": "Moss Eugene Melvin",
    "img": "https://www.homefacts.com/images/offenders/tennessee/thumb/00005597.jpg",
    "address": "5640 MERCHANTS CENTER BLVD",
    "locality": "KNOXVILLE",
    "lat": 36.0122826,
    "lng": -83.9780055
  },
  {
    "name": "Moss William Henry",
    "img": "https://www.homefacts.com/images/offenders/tennessee/thumb/00009631.jpg",
    "address": "221 HIAWASSEE AVE",
    "locality": "KNOXVILLE",
    "lat": 35.9978957,
    "lng": -83.94623750000001
  },
  {
    "name": "Murray Calvin",
    "img": "https://www.homefacts.com/images/offenders/tennessee/thumb/00595092.jpg",
    "address": "924 MICRO WAY",
    "locality": "KNOXVILLE",
    "lat": 36.0157685,
    "lng": -83.95431160000001
  },
  {
    "name": "Murray Charles Benjamin",
    "img": "https://www.homefacts.com/images/offenders/tennessee/thumb/SO007955.jpg",
    "address": "7314 MARTIN MILL PIKE",
    "locality": "KNOXVILLE",
    "lat": 35.8865783,
    "lng": -83.9087862
  },
  {
    "name": "Murrell Mark William",
    "img": "https://www.homefacts.com/images/offenders/tennessee/thumb/00568856.jpg",
    "address": "7500 JOYFUL LANE",
    "locality": "CORRYTON",
    "lat": 36.1248632,
    "lng": -83.8671693
  },
  {
    "name": "Mynatt Marcus Antwain",
    "img": "https://www.homefacts.com/images/offenders/tennessee/thumb/00467859.jpg",
    "address": "3430 LANSING AVE",
    "locality": "KNOXVILLE",
    "lat": 35.9939565,
    "lng": -83.8771908
  },
  {
    "name": "Nduwimana Emmanuel",
    "img": "https://www.homefacts.com/images/offenders/tennessee/thumb/00550243.jpg",
    "address": "6140 MAGNUM LANE",
    "locality": "KNOXVILLE",
    "lat": 36.05413040000001,
    "lng": -83.93251099999999
  },
  {
    "name": "Nelson Daniel Phillip",
    "img": "https://www.homefacts.com/images/offenders/tennessee/thumb/00332550.jpg",
    "address": "homeless",
    "locality": "KNOXVILLE",
    "lat": 35.965266,
    "lng": -83.923304
  },
  {
    "name": "Nelson Gretchen Lydia",
    "img": "https://www.homefacts.com/images/offenders/tennessee/thumb/00580275.jpg",
    "address": "4905 TILLERY ROAD",
    "locality": "KNOXVILLE",
    "lat": 35.9967058,
    "lng": -83.9778992
  },
  {
    "name": "Newcomb Nancy Nicole",
    "img": "https://www.homefacts.com/images/offenders/tennessee/thumb/00488379.jpg",
    "address": "9922 GATE POST",
    "locality": "KNOXVILLE",
    "lat": 35.9441563,
    "lng": -84.12222679999999
  },
  {
    "name": "Newton David Albert",
    "img": "https://www.homefacts.com/images/offenders/tennessee/thumb/00545830.jpg",
    "address": "1141 VALLEY AVE",
    "locality": "KNOXVILLE",
    "lat": 35.9572218,
    "lng": -83.9015462
  },
  {
    "name": "Nielsen Richard Peter",
    "img": "https://www.homefacts.com/images/offenders/tennessee/thumb/00453022.jpg",
    "address": "5001 MALONEYVILLE RD",
    "locality": "KNOXVILLE",
    "lat": 36.0853331,
    "lng": -83.84035039999999
  },
  {
    "name": "Nimeth David Richard",
    "img": "https://www.homefacts.com/images/offenders/tennessee/thumb/00329710.jpg",
    "address": "3522 ROTHMOOR DRIVE 52",
    "locality": "KNOXVILLE",
    "lat": 36.0619863,
    "lng": -83.92991909999999
  },
  {
    "name": "Nimeth Larry Michael",
    "img": "https://www.homefacts.com/images/offenders/tennessee/thumb/00510995.jpg",
    "address": "3522 ROTHMOOR DR",
    "locality": "KNOXVILLE",
    "lat": 36.0619863,
    "lng": -83.92991909999999
  },
  {
    "name": "Norman Bobby Joe",
    "img": "https://www.homefacts.com/images/offenders/tennessee/thumb/00344952.jpg",
    "address": "4341 LONAS DRIVE",
    "locality": "KNOXVILLE",
    "lat": 35.95680050000001,
    "lng": -83.9838395
  },
  {
    "name": "Norman Christopher Voin",
    "img": "https://www.homefacts.com/images/offenders/tennessee/thumb/00515740.jpg",
    "address": "1500 N CHERRY ST 113",
    "locality": "KNOXVILLE",
    "lat": 35.9934504,
    "lng": -83.9007496
  },
  {
    "name": "Norman Kenneth Ralph",
    "img": "https://www.homefacts.com/images/offenders/tennessee/thumb/00133687.jpg",
    "address": "8232 BRICKYARD RD",
    "locality": "POWELL",
    "lat": 36.0415618,
    "lng": -84.04032819999999
  },
  {
    "name": "Nyholt James Matthew",
    "img": "https://www.homefacts.com/images/offenders/tennessee/thumb/00276049.jpg",
    "address": "1450 MARYVILLE PIKE",
    "locality": "KNOXVILLE",
    "lat": 35.9208424,
    "lng": -83.9258065
  },
  {
    "name": "Oliver Patty Lynett",
    "img": "https://www.homefacts.com/images/offenders/tennessee/thumb/00260827.jpg",
    "address": "11025 SOLWAY SCHOOL ROAD",
    "locality": "KNOXVILLE",
    "lat": 35.9679214,
    "lng": -84.1905664
  },
  {
    "name": "Olson Bruce Edward",
    "img": "https://www.homefacts.com/images/offenders/tennessee/thumb/00384571.jpg",
    "address": "4744 CATE RD",
    "locality": "STRAWBERRY PLAINS",
    "lat": 36.022788,
    "lng": -83.62806719999999
  },
  {
    "name": "Orapesa-rosa Joel",
    "img": "https://www.homefacts.com/images/offenders/tennessee/thumb/00431329.jpg",
    "address": "109 GOSSAMER WAY",
    "locality": "KNOXVILLE",
    "lat": 35.9243071,
    "lng": -84.07005319999999
  },
  {
    "name": "Osgood Matthew Stuart",
    "img": "https://www.homefacts.com/images/offenders/tennessee/thumb/00494397.jpg",
    "address": "6209 STRAWBERRY PLAINS PK",
    "locality": "KNOXVILLE",
    "lat": 35.9860731,
    "lng": -83.80033449999999
  },
  {
    "name": "Otto Wayne Richard",
    "img": "https://www.homefacts.com/images/offenders/tennessee/thumb/SO016531.jpg",
    "address": "7407 RISING RD",
    "locality": "KNOXVILLE",
    "lat": 36.043761,
    "lng": -83.8169252
  },
  {
    "name": "Owens Leo Stanley",
    "img": "https://www.homefacts.com/images/offenders/tennessee/thumb/00249217.jpg",
    "address": "530 HARLESS ROAD",
    "locality": "CORRYTON",
    "lat": 36.1792892,
    "lng": -83.82350699999999
  },
  {
    "name": "Pachinger Kenneth John",
    "img": "https://www.homefacts.com/images/offenders/tennessee/thumb/SO010466.jpg",
    "address": "1232 COURT FIELD RD",
    "locality": "KNOXVILLE",
    "lat": 35.887451,
    "lng": -84.05274589999999
  },
  {
    "name": "Painter Kenneth David",
    "img": "https://www.homefacts.com/images/offenders/tennessee/thumb/00648678.jpg",
    "address": "6933 ASHVILLE HWY RM 110",
    "locality": "KNOXVILLE",
    "lat": 36.0197767,
    "lng": -83.7991602
  },
  {
    "name": "Parker James Amos",
    "img": "https://www.homefacts.com/images/offenders/tennessee/thumb/SO017701.jpg",
    "address": "201 CALLAHAN DRIVE 324",
    "locality": "KNOXVILLE",
    "lat": 36.0266068,
    "lng": -83.998949
  },
  {
    "name": "Parks Wayne Anthony",
    "img": "https://www.homefacts.com/images/offenders/tennessee/thumb/00329590.jpg",
    "address": "206 MICHAEL STREET",
    "locality": "KNOXVILLE",
    "lat": 36.0026897,
    "lng": -83.8622297
  },
  {
    "name": "Parris Matthew Wayne",
    "img": "https://www.homefacts.com/images/offenders/tennessee/thumb/00462516.jpg",
    "address": "homeless",
    "locality": "KNOXVILLE",
    "lat": 35.965266,
    "lng": -83.923304
  },
  {
    "name": "Parton Gary Michael",
    "img": "https://www.homefacts.com/images/offenders/tennessee/thumb/00097565.jpg",
    "address": "3807 KNOTT AVENUE",
    "locality": "KNOXVILLE",
    "lat": 35.954556,
    "lng": -83.9697956
  },
  {
    "name": "Patillo Roy Dean",
    "img": "https://www.homefacts.com/images/offenders/tennessee/thumb/00593672.jpg",
    "address": "homeless",
    "locality": "KNOXVILLE",
    "lat": 35.965266,
    "lng": -83.923304
  },
  {
    "name": "Patterson Kevin Paul",
    "img": "https://www.homefacts.com/images/offenders/tennessee/thumb/SO017278.jpg",
    "address": "6710 DANTEDALE LANE",
    "locality": "KNOXVILLE",
    "lat": 36.037956,
    "lng": -83.9769082
  },
  {
    "name": "Patton Brian Corrie",
    "img": "https://www.homefacts.com/images/offenders/tennessee/thumb/00586728.jpg",
    "address": "7260 GENOA LANE",
    "locality": "KNOXVILLE",
    "lat": 36.054239,
    "lng": -83.9805758
  },
  {
    "name": "Pendarvis Mark Anthony",
    "img": "https://www.homefacts.com/images/offenders/tennessee/thumb/00616464.jpg",
    "address": "2319 DODSON AVE",
    "locality": "KNOXVILLE",
    "lat": 35.9873352,
    "lng": -83.9043756
  },
  {
    "name": "Perry Briana Marie",
    "img": "https://www.homefacts.com/images/offenders/tennessee/thumb/00556741.jpg",
    "address": "4332 OLLIE DAVIS DR",
    "locality": "KNOXVILLE",
    "lat": 36.0134099,
    "lng": -83.8733989
  },
  {
    "name": "Petty Jamie Lynn",
    "img": "https://www.homefacts.com/images/offenders/tennessee/thumb/00332058.jpg",
    "address": "3547 WADE DANIELS WAY",
    "locality": "POWELL",
    "lat": 36.0247287,
    "lng": -84.058191
  },
  {
    "name": "Phelps Justin Kyle",
    "img": "https://www.homefacts.com/images/offenders/tennessee/thumb/00495186.jpg",
    "address": "800 MARKET ST SUITE 23107 FEDE",
    "locality": "KNOXVILLE",
    "lat": 35.965266,
    "lng": -83.923304
  },
  {
    "name": "Phillips Oscar Leroy",
    "img": "https://www.homefacts.com/images/offenders/tennessee/thumb/SO006140.jpg",
    "address": "1209 CEDAR LANE 616",
    "locality": "KNOXVILLE",
    "lat": 36.0259507,
    "lng": -83.95610049999999
  },
  {
    "name": "Pickel Gilbert Eugene",
    "img": "https://www.homefacts.com/images/offenders/tennessee/thumb/00605194.jpg",
    "address": "2947 HODGES LANDING DR",
    "locality": "KNOXVILLE",
    "lat": 35.9587555,
    "lng": -83.7723982
  },
  {
    "name": "Pierce Jonathan William",
    "img": "https://www.homefacts.com/images/offenders/tennessee/thumb/00657393.jpg",
    "address": "433 SUGARWOOD DR",
    "locality": "KNOXVILLE",
    "lat": 35.8639875,
    "lng": -84.175831
  },
  {
    "name": "Pierce Nathniel Eugene",
    "img": "https://www.homefacts.com/images/offenders/tennessee/thumb/SO003600.jpg",
    "address": "7125 ROLLINS ROAD",
    "locality": "KNOXVILLE",
    "lat": 36.0764582,
    "lng": -83.93553469999999
  },
  {
    "name": "Pinner William Edward",
    "img": "https://www.homefacts.com/images/offenders/tennessee/thumb/00593260.jpg",
    "address": "6440 SHETLAND DRIVE",
    "locality": "KNOXVILLE",
    "lat": 35.9191788,
    "lng": -83.8656427
  },
  {
    "name": "Pippin Kevin Michael",
    "img": "https://www.homefacts.com/images/offenders/tennessee/thumb/SO019677.jpg",
    "address": "9932 DAYFLOWER WAY",
    "locality": "KNOXVILLE",
    "lat": 35.954632,
    "lng": -84.1298517
  },
  {
    "name": "Pitts Allen Richard",
    "img": "https://www.homefacts.com/images/offenders/tennessee/thumb/00421606.jpg",
    "address": "8609 HARPEN ROAD",
    "locality": "KNOXVILLE",
    "lat": 35.9773297,
    "lng": -84.1196684
  },
  {
    "name": "Poole Ralph L",
    "img": "https://www.homefacts.com/images/offenders/tennessee/thumb/SO007448.jpg",
    "address": "3826 WAYNE DR",
    "locality": "KNOXVILLE",
    "lat": 36.0063087,
    "lng": -83.8869303
  },
  {
    "name": "Porterfield Joshua J",
    "img": "https://www.homefacts.com/images/offenders/tennessee/thumb/00345895.jpg",
    "address": "4750 SPEEDWAY CIR",
    "locality": "STRAWBERRY PLAINS",
    "lat": 36.023241,
    "lng": -83.65478139999999
  },
  {
    "name": "Post Stephen Roger",
    "img": "https://www.homefacts.com/images/offenders/tennessee/thumb/SO006612.jpg",
    "address": "127 HENRY AVE",
    "locality": "KNOXVILLE",
    "lat": 35.9407278,
    "lng": -83.9139891
  },
  {
    "name": "Powell Shane Thomas",
    "img": "https://www.homefacts.com/images/offenders/tennessee/thumb/00476039.jpg",
    "address": "8433 CARR LANE",
    "locality": "KNOXVILLE",
    "lat": 36.1165528,
    "lng": -83.95625509999999
  },
  {
    "name": "Powers George Everitt",
    "img": "https://www.homefacts.com/images/offenders/tennessee/thumb/00275370.jpg",
    "address": "3601 ROTHMORE DR",
    "locality": "KNOXVILLE",
    "lat": 35.965266,
    "lng": -83.923304
  },
  {
    "name": "Powers Tommy Ray",
    "img": "https://www.homefacts.com/images/offenders/tennessee/thumb/00135403.jpg",
    "address": "1710 TENNESSEE AVE",
    "locality": "KNOXVILLE",
    "lat": 35.9786821,
    "lng": -83.9536432
  },
  {
    "name": "Prijatel Michael Anthony",
    "img": "https://www.homefacts.com/images/offenders/tennessee/thumb/SO017816.jpg",
    "address": "6109 SEABURY COURT",
    "locality": "KNOXVILLE",
    "lat": 36.0012033,
    "lng": -84.0889606
  },
  {
    "name": "Qualls Paul Dewayne",
    "img": "https://www.homefacts.com/images/offenders/tennessee/thumb/00238819.jpg",
    "address": "405 RIDGEDALE DRIVE",
    "locality": "STRAWBERRY PLAINS",
    "lat": 36.0718507,
    "lng": -83.6361301
  },
  {
    "name": "Raby Kenneth Edward",
    "img": "https://www.homefacts.com/images/offenders/tennessee/thumb/00495098.jpg",
    "address": "10014 BOB GRAY RD",
    "locality": "KNOXVILLE",
    "lat": 35.9356212,
    "lng": -84.12286089999999
  },
  {
    "name": "Ragston Don Ray",
    "img": "https://www.homefacts.com/images/offenders/tennessee/thumb/SO016581.jpg",
    "address": "homeless",
    "locality": "KNOXVILLE",
    "lat": 35.965266,
    "lng": -83.923304
  },
  {
    "name": "Ratkewicz David E",
    "img": "https://www.homefacts.com/images/offenders/tennessee/thumb/SO015468.jpg",
    "address": "6300 ASHEVILLE HIGHWAY 118",
    "locality": "KNOXVILLE",
    "lat": 36.01678440000001,
    "lng": -83.8236359
  },
  {
    "name": "Ratliff Clifton Kendrick",
    "img": "https://www.homefacts.com/images/offenders/tennessee/thumb/00653866.jpg",
    "address": "201 CALLAHAN DR RM 310",
    "locality": "KNOXVILLE",
    "lat": 36.0266068,
    "lng": -83.998949
  },
  {
    "name": "Ratliff Willard",
    "img": "https://www.homefacts.com/images/offenders/tennessee/thumb/00370886.jpg",
    "address": "4720 YELLOWJACKET ROAD APT 3",
    "locality": "KNOXVILLE",
    "lat": 35.9290481,
    "lng": -83.9047306
  },
  {
    "name": "Reagan Johnny Albert",
    "img": "https://www.homefacts.com/images/offenders/tennessee/thumb/00363180.jpg",
    "address": "913 METLER DRIVE  LOT 8",
    "locality": "KNOXVILLE",
    "lat": 36.00976540000001,
    "lng": -83.99612119999999
  },
  {
    "name": "Reagan Michael Robert",
    "img": "https://www.homefacts.com/images/offenders/tennessee/thumb/00537815.jpg",
    "address": "2013 THORNGROVE PIKE",
    "locality": "KNOXVILLE",
    "lat": 35.9762566,
    "lng": -83.84421239999999
  },
  {
    "name": "Rebori Anthony Joseph",
    "img": "https://www.homefacts.com/images/offenders/tennessee/thumb/00477994.jpg",
    "address": "5115 HIGH AVE",
    "locality": "KNOXVILLE",
    "lat": 35.954145,
    "lng": -83.9061684
  },
  {
    "name": "Reed Jessie Ray",
    "img": "https://www.homefacts.com/images/offenders/tennessee/thumb/00357406.jpg",
    "address": "12008 HATMAKER LANE",
    "locality": "KNOXVILLE",
    "lat": 35.8963239,
    "lng": -84.18682900000002
  },
  {
    "name": "Resh Thomas Blane",
    "img": "https://www.homefacts.com/images/offenders/tennessee/thumb/00144063.jpg",
    "address": "6316 ASHEVILLE HWY",
    "locality": "KNOXVILLE",
    "lat": 36.0168602,
    "lng": -83.8216989
  },
  {
    "name": "Restorff Michael Eugene",
    "img": "https://www.homefacts.com/images/offenders/tennessee/thumb/SO014440.jpg",
    "address": "3403 BLUE SPRING RD",
    "locality": "STRAWBERRY PLAINS",
    "lat": 36.0551011,
    "lng": -83.63861949999999
  },
  {
    "name": "Reynolds Mark Alan",
    "img": "https://www.homefacts.com/images/offenders/tennessee/thumb/00486964.jpg",
    "address": "348 2ND STREET",
    "locality": "CORRYTON",
    "lat": 36.1709837,
    "lng": -83.7918814
  },
  {
    "name": "Reynolds Michael Ray",
    "img": "https://www.homefacts.com/images/offenders/tennessee/thumb/00638304.jpg",
    "address": "6300 ASHEVILLE HWY 109",
    "locality": "KNOXVILLE",
    "lat": 36.01678440000001,
    "lng": -83.8236359
  },
  {
    "name": "Rhodes Odell Clifford",
    "img": "https://www.homefacts.com/images/offenders/tennessee/thumb/00626591.jpg",
    "address": "homeless",
    "locality": "KNOXVILLE",
    "lat": 35.965266,
    "lng": -83.923304
  },
  {
    "name": "Riden Joey E",
    "img": "https://www.homefacts.com/images/offenders/tennessee/thumb/00210359.jpg",
    "address": "homeless",
    "locality": "KNOXVILLE",
    "lat": 35.965266,
    "lng": -83.923304
  },
  {
    "name": "Rider Laurence Jay",
    "img": "https://www.homefacts.com/images/offenders/tennessee/thumb/00584072.jpg",
    "address": "7726 LOBETTI LANDING LANE",
    "locality": "KNOXVILLE",
    "lat": 35.9703807,
    "lng": -84.0787658
  },
  {
    "name": "Riggs Robert Eugene",
    "img": "https://www.homefacts.com/images/offenders/tennessee/thumb/00233904.jpg",
    "address": "7217 HARTLEY LANE LOT 8",
    "locality": "KNOXVILLE",
    "lat": 36.0555915,
    "lng": -83.9766671
  },
  {
    "name": "Rivera Michael Nmn",
    "img": "https://www.homefacts.com/images/offenders/tennessee/thumb/SO014073.jpg",
    "address": "5135 GARDEN MEADOW DRIVE",
    "locality": "KNOXVILLE",
    "lat": 35.9971587,
    "lng": -83.97928329999999
  },
  {
    "name": "Rivoira Michael",
    "img": "https://www.homefacts.com/images/offenders/tennessee/thumb/00269778.jpg",
    "address": "313 JENSO DR",
    "locality": "KNOXVILLE",
    "lat": 36.0005441,
    "lng": -83.9621981
  },
  {
    "name": "Roberts Edward Danny",
    "img": "https://www.homefacts.com/images/offenders/tennessee/thumb/00312613.jpg",
    "address": "108 SOLAR CIRCLE",
    "locality": "POWELL",
    "lat": 36.0245127,
    "lng": -84.0836791
  },
  {
    "name": "Roberts Kurtis Lee",
    "img": "https://www.homefacts.com/images/offenders/tennessee/thumb/00622564.jpg",
    "address": "7800 WISE LANE",
    "locality": "KNOXVILLE",
    "lat": 35.9165853,
    "lng": -83.820556
  },
  {
    "name": "Roberts Thomas James",
    "img": "https://www.homefacts.com/images/offenders/tennessee/thumb/00337901.jpg",
    "address": "7604 CLAPPS CHAPEL RD",
    "locality": "CORRYTON",
    "lat": 36.1286151,
    "lng": -83.83966339999999
  },
  {
    "name": "Robertson Daren Lee",
    "img": "https://www.homefacts.com/images/offenders/tennessee/thumb/00356479.jpg",
    "address": "7719 BRICK CHASE LANE",
    "locality": "KNOXVILLE",
    "lat": 35.9380546,
    "lng": -84.1067843
  },
  {
    "name": "Robinson Daniel",
    "img": "https://www.homefacts.com/images/offenders/tennessee/thumb/SO008097.jpg",
    "address": "5821 WIND TREE LN",
    "locality": "KNOXVILLE",
    "lat": 35.9615656,
    "lng": -84.01742399999999
  },
  {
    "name": "Robinson Gerald Clinton",
    "img": "https://www.homefacts.com/images/offenders/tennessee/thumb/00342609.jpg",
    "address": "homeless",
    "locality": "KNOXVILLE",
    "lat": 35.965266,
    "lng": -83.923304
  },
  {
    "name": "Robinson Glenn Vernon",
    "img": "https://www.homefacts.com/images/offenders/tennessee/thumb/00459402.jpg",
    "address": "1500 N CHERRY ST APT 126",
    "locality": "KNOXVILLE",
    "lat": 35.9934504,
    "lng": -83.9007496
  },
  {
    "name": "Robinson Jason Rene",
    "img": "https://www.homefacts.com/images/offenders/tennessee/thumb/00139369.jpg",
    "address": "homeless",
    "locality": "KNOXVILLE",
    "lat": 35.965266,
    "lng": -83.923304
  },
  {
    "name": "Robinson Ronald Eugene",
    "img": "https://www.homefacts.com/images/offenders/tennessee/thumb/00099695.jpg",
    "address": "3347 WILSON AVE",
    "locality": "KNOXVILLE",
    "lat": 35.9921772,
    "lng": -83.8779368
  },
  {
    "name": "Rocha Brian Joseph",
    "img": "https://www.homefacts.com/images/offenders/tennessee/thumb/SO017253.jpg",
    "address": "1324 BARCELONA DR",
    "locality": "KNOXVILLE",
    "lat": 35.9467315,
    "lng": -84.0884117
  },
  {
    "name": "Rockwell Douglas Wayne",
    "img": "https://www.homefacts.com/images/offenders/tennessee/thumb/00472509.jpg",
    "address": "7924 CLINTON HIGHWAY LOT 4",
    "locality": "POWELL",
    "lat": 36.0293799,
    "lng": -84.0639522
  },
  {
    "name": "Rodgers Grady Fitzgerald",
    "img": "https://www.homefacts.com/images/offenders/tennessee/thumb/00359605.jpg",
    "address": "201 CALLAHAN DRIVE RM 301",
    "locality": "KNOXVILLE",
    "lat": 36.0266068,
    "lng": -83.998949
  },
  {
    "name": "Rodriguez Carlos Xecalhua",
    "img": "https://www.homefacts.com/images/offenders/tennessee/thumb/00626306.jpg",
    "address": "324 PROSPERITY DRIVE",
    "locality": "KNOXVILLE",
    "lat": 35.9232411,
    "lng": -84.0793813
  },
  {
    "name": "Rollins Gary Jr",
    "img": "https://www.homefacts.com/images/offenders/tennessee/thumb/00592889.jpg",
    "address": "930 WEST OLDHAM AVE",
    "locality": "KNOXVILLE",
    "lat": 35.9787645,
    "lng": -83.9422872
  },
  {
    "name": "Rowland William Austin",
    "img": "https://www.homefacts.com/images/offenders/tennessee/thumb/00525269.jpg",
    "address": "homeless",
    "locality": "KNOXVILLE",
    "lat": 35.965266,
    "lng": -83.923304
  },
  {
    "name": "Rudd Carissa Michelle",
    "img": "https://www.homefacts.com/images/offenders/tennessee/thumb/00622388.jpg",
    "address": "1312 9TH AVE",
    "locality": "KNOXVILLE",
    "lat": 35.9886786,
    "lng": -83.9094278
  },
  {
    "name": "Russell Dale Lynn",
    "img": "https://www.homefacts.com/images/offenders/tennessee/thumb/00145066.jpg",
    "address": "homeless",
    "locality": "KNOXVILLE",
    "lat": 35.965266,
    "lng": -83.923304
  },
  {
    "name": "Russell David Mckinley",
    "img": "https://www.homefacts.com/images/offenders/tennessee/thumb/00342432.jpg",
    "address": "5908 PARKDALE RD",
    "locality": "KNOXVILLE",
    "lat": 36.0326082,
    "lng": -83.9565975
  },
  {
    "name": "Russell Lonnie",
    "img": "https://www.homefacts.com/images/offenders/tennessee/thumb/00348736.jpg",
    "address": "3016 AVONDALE AVE",
    "locality": "KNOXVILLE",
    "lat": 36.0120415,
    "lng": -83.90834180000002
  },
  {
    "name": "Rutherford David Eugene",
    "img": "https://www.homefacts.com/images/offenders/tennessee/thumb/00107206.jpg",
    "address": "230 DUSTY LANE",
    "locality": "POWELL",
    "lat": 36.0571351,
    "lng": -84.1050303
  },
  {
    "name": "Rutherford Roger",
    "img": "https://www.homefacts.com/images/offenders/tennessee/thumb/00289182.jpg",
    "address": "6133 CHAPMAN HWY RM 122",
    "locality": "KNOXVILLE",
    "lat": 35.9209493,
    "lng": -83.87635619999999
  },
  {
    "name": "Sage Tracy James",
    "img": "https://www.homefacts.com/images/offenders/tennessee/thumb/00218181.jpg",
    "address": "homeless",
    "locality": "KNOXVILLE",
    "lat": 35.965266,
    "lng": -83.923304
  },
  {
    "name": "Salmons Ricky Lance",
    "img": "https://www.homefacts.com/images/offenders/tennessee/thumb/SO019461.jpg",
    "address": "5001 MALONEYVILLE RD",
    "locality": "KNOXVILLE",
    "lat": 36.0853331,
    "lng": -83.84035039999999
  },
  {
    "name": "Sandifer John Wayne",
    "img": "https://www.homefacts.com/images/offenders/tennessee/thumb/00343759.jpg",
    "address": "5001 MALONEYVILLE RD",
    "locality": "KNOXVILLE",
    "lat": 36.0853331,
    "lng": -83.84035039999999
  },
  {
    "name": "Sartin Donny Ray",
    "img": "https://www.homefacts.com/images/offenders/tennessee/thumb/SO010832.jpg",
    "address": "800 MARKET ST",
    "locality": "KNOXVILLE",
    "lat": 35.9620244,
    "lng": -83.9170743
  },
  {
    "name": "Scanlon Patrick Wayne",
    "img": "https://www.homefacts.com/images/offenders/tennessee/thumb/00419820.jpg",
    "address": "5640 MECHANTS CNT BLVD RM 108",
    "locality": "KNOXVILLE",
    "lat": 36.0122826,
    "lng": -83.9780055
  },
  {
    "name": "Scarbrough Jeffrey Calvin",
    "img": "https://www.homefacts.com/images/offenders/tennessee/thumb/00395279.jpg",
    "address": "8709 ASHEVILLE HWY ROOM 114",
    "locality": "KNOXVILLE",
    "lat": 36.0268304,
    "lng": -83.7332445
  },
  {
    "name": "Schean Jacob",
    "img": "https://www.homefacts.com/images/offenders/tennessee/thumb/00651452.jpg",
    "address": "416 ANDES STREET",
    "locality": "KNOXVILLE",
    "lat": 35.9939292,
    "lng": -83.8761401
  },
  {
    "name": "Schmaltz Ezekiel",
    "img": "https://www.homefacts.com/images/offenders/tennessee/thumb/00649621.jpg",
    "address": "homeless",
    "locality": "KNOXVILLE",
    "lat": 35.965266,
    "lng": -83.923304
  },
  {
    "name": "Scott David Allen",
    "img": "https://www.homefacts.com/images/offenders/tennessee/thumb/SO017754.jpg",
    "address": "6262 CLINTON HIGHWAY 107",
    "locality": "KNOXVILLE",
    "lat": 36.0097056,
    "lng": -84.00262959999999
  },
  {
    "name": "Sebastian Julio Diego",
    "img": "https://www.homefacts.com/images/offenders/tennessee/thumb/00576628.jpg",
    "address": "homeless",
    "locality": "KNOXVILLE",
    "lat": 35.965266,
    "lng": -83.923304
  },
  {
    "name": "Sessum Robert Charles",
    "img": "https://www.homefacts.com/images/offenders/tennessee/thumb/00258317.jpg",
    "address": "407 HICKORY DR",
    "locality": "KNOXVILLE",
    "lat": 36.0151459,
    "lng": -83.9853571
  },
  {
    "name": "Sexton James Edward",
    "img": "https://www.homefacts.com/images/offenders/tennessee/thumb/00301271.jpg",
    "address": "7504 RISING RD",
    "locality": "KNOXVILLE",
    "lat": 36.0410922,
    "lng": -83.8167163
  },
  {
    "name": "Shannon Sandal Fay",
    "img": "https://www.homefacts.com/images/offenders/tennessee/thumb/00501146.jpg",
    "address": "5901 CEMENT PLANT RD",
    "locality": "KNOXVILLE",
    "lat": 36.0245719,
    "lng": -83.84352059999999
  },
  {
    "name": "Sharp Anthony Brian",
    "img": "https://www.homefacts.com/images/offenders/tennessee/thumb/00254518.jpg",
    "address": "6821 HAMMER RD",
    "locality": "KNOXVILLE",
    "lat": 36.0071677,
    "lng": -83.8001231
  },
  {
    "name": "Sharp Marty Allen",
    "img": "https://www.homefacts.com/images/offenders/tennessee/thumb/00305765.jpg",
    "address": "8321 BUD HAWKINS RD",
    "locality": "CORRYTON",
    "lat": 36.1043095,
    "lng": -83.7863311
  },
  {
    "name": "Sharp Robert George",
    "img": "https://www.homefacts.com/images/offenders/tennessee/thumb/00293685.jpg",
    "address": "5001 MALONEYVILLE RD",
    "locality": "KNOXVILLE",
    "lat": 36.0853331,
    "lng": -83.84035039999999
  },
  {
    "name": "Sharp William Curtis",
    "img": "https://www.homefacts.com/images/offenders/tennessee/thumb/00130788.jpg",
    "address": "6910 CENTRAL AVE",
    "locality": "KNOXVILLE",
    "lat": 35.9773225,
    "lng": -83.8921332
  },
  {
    "name": "Shaw Emma Jane",
    "img": "https://www.homefacts.com/images/offenders/tennessee/thumb/00104230.jpg",
    "address": "8714 OAKS ROAD",
    "locality": "KNOXVILLE",
    "lat": 36.1375061,
    "lng": -83.9174286
  },
  {
    "name": "Shelton Ted Jr",
    "img": "https://www.homefacts.com/images/offenders/tennessee/thumb/00222755.jpg",
    "address": "9613 W LYTTLETON LN",
    "locality": "KNOXVILLE",
    "lat": 35.9059831,
    "lng": -84.1040897
  },
  {
    "name": "Shelton William Scott",
    "img": "https://www.homefacts.com/images/offenders/tennessee/thumb/SO011158.jpg",
    "address": "homeless",
    "locality": "KNOXVILLE",
    "lat": 35.965266,
    "lng": -83.923304
  },
  {
    "name": "Sherrod Kenneth Ray",
    "img": "https://www.homefacts.com/images/offenders/tennessee/thumb/SO000023.jpg",
    "address": "4609 JAY WAY",
    "locality": "KNOXVILLE",
    "lat": 35.9527,
    "lng": -83.9867232
  },
  {
    "name": "Shoemaker David Anthony",
    "img": "https://www.homefacts.com/images/offenders/tennessee/thumb/SO019153.jpg",
    "address": "11712 FINCH RD",
    "locality": "KNOXVILLE",
    "lat": 35.8623008,
    "lng": -84.1632564
  },
  {
    "name": "Shoffner Thomas Steven",
    "img": "https://www.homefacts.com/images/offenders/tennessee/thumb/00409180.jpg",
    "address": "homeless",
    "locality": "KNOXVILLE",
    "lat": 35.965266,
    "lng": -83.923304
  },
  {
    "name": "Shofner Michael Shawn",
    "img": "https://www.homefacts.com/images/offenders/tennessee/thumb/00350489.jpg",
    "address": "5935 BRIDGE GARDEN ROAD",
    "locality": "KNOXVILLE",
    "lat": 35.9999055,
    "lng": -84.0040483
  },
  {
    "name": "Shultz Robert Thomas",
    "img": "https://www.homefacts.com/images/offenders/tennessee/thumb/00374901.jpg",
    "address": "910 TYSON STREET",
    "locality": "KNOXVILLE",
    "lat": 35.9759376,
    "lng": -83.9259287
  },
  {
    "name": "Simpson Brandon James",
    "img": "https://www.homefacts.com/images/offenders/tennessee/thumb/00497906.jpg",
    "address": "120 CLEAR BRANCH RD",
    "locality": "CORRYTON",
    "lat": 36.1795561,
    "lng": -83.79116619999999
  },
  {
    "name": "Skidmore Bobby Ray",
    "img": "https://www.homefacts.com/images/offenders/tennessee/thumb/00528069.jpg",
    "address": "homeless",
    "locality": "KNOXVILLE",
    "lat": 35.965266,
    "lng": -83.923304
  },
  {
    "name": "Smith Brandon Tyler",
    "img": "https://www.homefacts.com/images/offenders/tennessee/thumb/00528437.jpg",
    "address": "6331 CHAPMAN HIGHWAY RM 121",
    "locality": "KNOXVILLE",
    "lat": 35.9211879,
    "lng": -83.87049809999999
  },
  {
    "name": "Smith Hiroshi R",
    "img": "https://www.homefacts.com/images/offenders/tennessee/thumb/00289040.jpg",
    "address": "1745 OSCAR ARMSTRONG RD",
    "locality": "KNOXVILLE",
    "lat": 35.9938644,
    "lng": -83.7424619
  },
  {
    "name": "Smith Ivan Monroe",
    "img": "https://www.homefacts.com/images/offenders/tennessee/thumb/00207245.jpg",
    "address": "2808 WOODBINE AVE",
    "locality": "KNOXVILLE",
    "lat": 35.9915824,
    "lng": -83.89237570000002
  },
  {
    "name": "Smith James Allen",
    "img": "https://www.homefacts.com/images/offenders/tennessee/thumb/00110105.jpg",
    "address": "6120 THORNGROVE PIKE",
    "locality": "KNOXVILLE",
    "lat": 35.9641228,
    "lng": -83.7937264
  },
  {
    "name": "Smith Jeffrey Morgan",
    "img": "https://www.homefacts.com/images/offenders/tennessee/thumb/SO016203.jpg",
    "address": "5001 MALONEYVILLE RD",
    "locality": "KNOXVILLE",
    "lat": 36.0853331,
    "lng": -83.84035039999999
  },
  {
    "name": "Smith Jerry Wynn",
    "img": "https://www.homefacts.com/images/offenders/tennessee/thumb/00359018.jpg",
    "address": "1500 NORTH CHERRY STREET 120",
    "locality": "KNOXVILLE",
    "lat": 35.9934504,
    "lng": -83.9007496
  },
  {
    "name": "Smith Kevin Eugene",
    "img": "https://www.homefacts.com/images/offenders/tennessee/thumb/00481236.jpg",
    "address": "5001 MALONEYVILLE RD",
    "locality": "KNOXVILLE",
    "lat": 36.0853331,
    "lng": -83.84035039999999
  },
  {
    "name": "Smith Sidney Boyd",
    "img": "https://www.homefacts.com/images/offenders/tennessee/thumb/SO009897.jpg",
    "address": "800 MARKET ST. SUITE 2-3107 US",
    "locality": "KNOXVILLE",
    "lat": 35.965266,
    "lng": -83.923304
  },
  {
    "name": "Smith Timothy Nmn",
    "img": "https://www.homefacts.com/images/offenders/tennessee/thumb/SO010121.jpg",
    "address": "7909 DODSON RD",
    "locality": "KNOXVILLE",
    "lat": 35.9314318,
    "lng": -83.77208720000002
  },
  {
    "name": "Smitson James Eugene",
    "img": "https://www.homefacts.com/images/offenders/tennessee/thumb/SO002888.jpg",
    "address": "116 TURKEY RD",
    "locality": "POWELL",
    "lat": 36.0279515,
    "lng": -84.0925583
  },
  {
    "name": "Sooy Michael Scott",
    "img": "https://www.homefacts.com/images/offenders/tennessee/thumb/00529313.jpg",
    "address": "3902 FAIRMONT BOULEVARD",
    "locality": "KNOXVILLE",
    "lat": 36.018444,
    "lng": -83.89713
  },
  {
    "name": "Southard Thomas Earl",
    "img": "https://www.homefacts.com/images/offenders/tennessee/thumb/00627648.jpg",
    "address": "2705 MYNATT ROAD",
    "locality": "KNOXVILLE",
    "lat": 36.0536221,
    "lng": -83.9462463
  },
  {
    "name": "Sowards Ronald",
    "img": "https://www.homefacts.com/images/offenders/tennessee/thumb/00603418.jpg",
    "address": "4120 W EMORY RD",
    "locality": "POWELL",
    "lat": 36.0154499,
    "lng": -84.0609137
  },
  {
    "name": "Spencer Paul Granderson",
    "img": "https://www.homefacts.com/images/offenders/tennessee/thumb/00289152.jpg",
    "address": "1725 GARDEN VIEW LANE",
    "locality": "KNOXVILLE",
    "lat": 35.9916292,
    "lng": -83.9811569
  },
  {
    "name": "Stamey Agey Christopher",
    "img": "https://www.homefacts.com/images/offenders/tennessee/thumb/00302045.jpg",
    "address": "295 TOBY HOLLOW LANE",
    "locality": "KNOXVILLE",
    "lat": 35.9969332,
    "lng": -84.149343
  },
  {
    "name": "Starnes Ronald Edmound",
    "img": "https://www.homefacts.com/images/offenders/tennessee/thumb/00631468.jpg",
    "address": "201 CALLAHAN DR RM 227",
    "locality": "KNOXVILLE",
    "lat": 36.0266068,
    "lng": -83.998949
  },
  {
    "name": "Stevens Clarence Eugene",
    "img": "https://www.homefacts.com/images/offenders/tennessee/thumb/00167794.jpg",
    "address": "8114 HARMON RD",
    "locality": "POWELL",
    "lat": 36.039822,
    "lng": -84.0366402
  },
  {
    "name": "Stevens Jasper Burl",
    "img": "https://www.homefacts.com/images/offenders/tennessee/thumb/00287485.jpg",
    "address": "1500 N CHERRY ST RM 323",
    "locality": "KNOXVILLE",
    "lat": 35.9934504,
    "lng": -83.9007496
  },
  {
    "name": "Stevens Lindsay Medd",
    "img": "https://www.homefacts.com/images/offenders/tennessee/thumb/00587913.jpg",
    "address": "7166 WINDWHISPER BLVD",
    "locality": "KNOXVILLE",
    "lat": 36.0794431,
    "lng": -83.82159209999999
  },
  {
    "name": "Stockton Shane Edward",
    "img": "https://www.homefacts.com/images/offenders/tennessee/thumb/00390729.jpg",
    "address": "419 CANBERRA DR UNIT 127",
    "locality": "KNOXVILLE",
    "lat": 35.9139632,
    "lng": -84.05958249999999
  },
  {
    "name": "Stone Jason Lee",
    "img": "https://www.homefacts.com/images/offenders/tennessee/thumb/00555388.jpg",
    "address": "10948 TWIN HARBOR DR",
    "locality": "KNOXVILLE",
    "lat": 35.8709065,
    "lng": -84.1338344
  },
  {
    "name": "Stout Scott Dwain",
    "img": "https://www.homefacts.com/images/offenders/tennessee/thumb/00513892.jpg",
    "address": "6320 BRACKETT RD",
    "locality": "KNOXVILLE",
    "lat": 36.1139487,
    "lng": -83.8915002
  },
  {
    "name": "Strang Joseph Raymond",
    "img": "https://www.homefacts.com/images/offenders/tennessee/thumb/00492356.jpg",
    "address": "6625 BURBANK CIRCLE",
    "locality": "KNOXVILLE",
    "lat": 36.0653853,
    "lng": -83.9228973
  },
  {
    "name": "Sullivan Maurice Barry",
    "img": "https://www.homefacts.com/images/offenders/tennessee/thumb/SO014660.jpg",
    "address": "7424 STRAWPLAINS PIKE",
    "locality": "KNOXVILLE",
    "lat": 36.0055335,
    "lng": -83.77140059999999
  },
  {
    "name": "Summitt William David",
    "img": "https://www.homefacts.com/images/offenders/tennessee/thumb/SO003839.jpg",
    "address": "6512 ELLESMERE DR",
    "locality": "KNOXVILLE",
    "lat": 35.9742857,
    "lng": -84.0381075
  },
  {
    "name": "Surber Jerry D",
    "img": "https://www.homefacts.com/images/offenders/tennessee/thumb/SO003029.jpg",
    "address": "1052 FOREST HEIGHTS",
    "locality": "KNOXVILLE",
    "lat": 35.947677,
    "lng": -83.9887614
  },
  {
    "name": "Suttles Kenneth Wade",
    "img": "https://www.homefacts.com/images/offenders/tennessee/thumb/00424654.jpg",
    "address": "1505 BONITA ROAD",
    "locality": "KNOXVILLE",
    "lat": 36.0300003,
    "lng": -83.95367689999999
  },
  {
    "name": "Sutton Clauton C",
    "img": "https://www.homefacts.com/images/offenders/tennessee/thumb/00102413.jpg",
    "address": "3901 GREEN WAY",
    "locality": "KNOXVILLE",
    "lat": 36.0301615,
    "lng": -83.90416669999999
  },
  {
    "name": "Sweeney Jerry Dick",
    "img": "https://www.homefacts.com/images/offenders/tennessee/thumb/00444712.jpg",
    "address": "8405 TOBE TINDELL LANE",
    "locality": "CORRYTON",
    "lat": 36.1638056,
    "lng": -83.81641929999999
  },
  {
    "name": "Sweeney Milton T",
    "img": "https://www.homefacts.com/images/offenders/tennessee/thumb/SO000796.jpg",
    "address": "434 ATLANTIC AVE",
    "locality": "KNOXVILLE",
    "lat": 35.9971211,
    "lng": -83.93947659999999
  },
  {
    "name": "Sweitzer Samuel Allen",
    "img": "https://www.homefacts.com/images/offenders/tennessee/thumb/00261774.jpg",
    "address": "1737 SMITH SCHOOL RD",
    "locality": "STRAWBERRY PLAINS",
    "lat": 35.9709389,
    "lng": -83.66935629999999
  },
  {
    "name": "Tallent Robert Tipton",
    "img": "https://www.homefacts.com/images/offenders/tennessee/thumb/SO017537.jpg",
    "address": "800 MARKET ST US MARSHALL CUST",
    "locality": "KNOXVILLE",
    "lat": 35.965266,
    "lng": -83.923304
  },
  {
    "name": "Talley Robert Paul",
    "img": "https://www.homefacts.com/images/offenders/tennessee/thumb/00500689.jpg",
    "address": "10511 ODIN ST",
    "locality": "KNOXVILLE",
    "lat": 35.9284782,
    "lng": -84.1387915
  },
  {
    "name": "Taylor John Richard",
    "img": "https://www.homefacts.com/images/offenders/tennessee/thumb/00485505.jpg",
    "address": "7803 BABS ROAD",
    "locality": "KNOXVILLE",
    "lat": 35.9011835,
    "lng": -83.8423779
  },
  {
    "name": "Taylor Ontario Lamont",
    "img": "https://www.homefacts.com/images/offenders/tennessee/thumb/00576761.jpg",
    "address": "5001 MALONEYVILLE RD",
    "locality": "KNOXVILLE",
    "lat": 36.0853331,
    "lng": -83.84035039999999
  },
  {
    "name": "Terry Michael Dewayne",
    "img": "https://www.homefacts.com/images/offenders/tennessee/thumb/SO018553.jpg",
    "address": "homeless",
    "locality": "KNOXVILLE",
    "lat": 35.965266,
    "lng": -83.923304
  },
  {
    "name": "Tessier Robert Andrew",
    "img": "https://www.homefacts.com/images/offenders/tennessee/thumb/00661772.jpg",
    "address": "5024 CLOVERDALE LN",
    "locality": "KNOXVILLE",
    "lat": 36.0385588,
    "lng": -83.9098188
  },
  {
    "name": "Teter Charles Ray",
    "img": "https://www.homefacts.com/images/offenders/tennessee/thumb/SO019684.jpg",
    "address": "6300 ASHEVILLE HIGHWAY 352",
    "locality": "KNOXVILLE",
    "lat": 36.01678440000001,
    "lng": -83.8236359
  },
  {
    "name": "Thigpen Jamon Daniel",
    "img": "https://www.homefacts.com/images/offenders/tennessee/thumb/00331423.jpg",
    "address": "8016 PEDIGO RD",
    "locality": "KNOXVILLE",
    "lat": 36.069415,
    "lng": -83.9900839
  },
  {
    "name": "Thomas George Geovonni",
    "img": "https://www.homefacts.com/images/offenders/tennessee/thumb/00464319.jpg",
    "address": "5001 MALONEYVILLE RD",
    "locality": "KNOXVILLE",
    "lat": 36.0853331,
    "lng": -83.84035039999999
  },
  {
    "name": "Thomas James Alvin",
    "img": "https://www.homefacts.com/images/offenders/tennessee/thumb/SO002924.jpg",
    "address": "homeless",
    "locality": "KNOXVILLE",
    "lat": 35.965266,
    "lng": -83.923304
  },
  {
    "name": "Thompkins Albert Franklin",
    "img": "https://www.homefacts.com/images/offenders/tennessee/thumb/00219065.jpg",
    "address": "1500 N CHERRY STREET RM 228",
    "locality": "KNOXVILLE",
    "lat": 35.9934504,
    "lng": -83.9007496
  },
  {
    "name": "Thompkins Albert Franklin",
    "img": "https://www.homefacts.com/images/offenders/tennessee/thumb/00378727.jpg",
    "address": "400 WEST MAIN STREET",
    "locality": "KNOXVILLE",
    "lat": 35.9599643,
    "lng": -83.9211813
  },
  {
    "name": "Thompson Christopher Michael",
    "img": "https://www.homefacts.com/images/offenders/tennessee/thumb/00541320.jpg",
    "address": "1110 TENNESSEE AVENUE 3",
    "locality": "KNOXVILLE",
    "lat": 35.9824344,
    "lng": -83.9491261
  },
  {
    "name": "Thompson Curtis Leon",
    "img": "https://www.homefacts.com/images/offenders/tennessee/thumb/00115834.jpg",
    "address": "3010 LINDEN AVE",
    "locality": "KNOXVILLE",
    "lat": 35.9927016,
    "lng": -83.8867125
  },
  {
    "name": "Thompson Durrell",
    "img": "https://www.homefacts.com/images/offenders/tennessee/thumb/00631646.jpg",
    "address": "1324 BOB KIRBY RD",
    "locality": "KNOXVILLE",
    "lat": 35.9414726,
    "lng": -84.1193548
  },
  {
    "name": "Thompson Randall Reese",
    "img": "https://www.homefacts.com/images/offenders/tennessee/thumb/00333613.jpg",
    "address": "homeless",
    "locality": "KNOXVILLE",
    "lat": 35.965266,
    "lng": -83.923304
  },
  {
    "name": "Thompson Timothy Clayton",
    "img": "https://www.homefacts.com/images/offenders/tennessee/thumb/00262794.jpg",
    "address": "05001 MALONEYVILLE RD",
    "locality": "KNOXVILLE",
    "lat": 36.0841221,
    "lng": -83.84094809999999
  },
  {
    "name": "Thress Jeffrey Scott",
    "img": "https://www.homefacts.com/images/offenders/tennessee/thumb/00361141.jpg",
    "address": "5029 OMEGA TERRACE LN",
    "locality": "KNOXVILLE",
    "lat": 36.11688410000001,
    "lng": -83.9265314
  },
  {
    "name": "Tillery Bryan Keith",
    "img": "https://www.homefacts.com/images/offenders/tennessee/thumb/00518929.jpg",
    "address": "2409 DODSON AVE",
    "locality": "KNOXVILLE",
    "lat": 35.9879491,
    "lng": -83.9032844
  },
  {
    "name": "Tillman Johnny Lee",
    "img": "https://www.homefacts.com/images/offenders/tennessee/thumb/00082007.jpg",
    "address": "8621 FOX LONAS ROAD",
    "locality": "KNOXVILLE",
    "lat": 35.9430261,
    "lng": -84.0746448
  },
  {
    "name": "Tobias Francisco Dionicio",
    "img": "https://www.homefacts.com/images/offenders/tennessee/thumb/00481252.jpg",
    "address": "5001 MALONEYVILLE RD",
    "locality": "KNOXVILLE",
    "lat": 36.0853331,
    "lng": -83.84035039999999
  },
  {
    "name": "Totten David",
    "img": "https://www.homefacts.com/images/offenders/tennessee/thumb/SO019510.jpg",
    "address": "209 E NORTON ROAD",
    "locality": "KNOXVILLE",
    "lat": 35.9112435,
    "lng": -83.84149239999999
  },
  {
    "name": "Tran Dan Van",
    "img": "https://www.homefacts.com/images/offenders/tennessee/thumb/00609087.jpg",
    "address": "9173 CHAPMAN HWY",
    "locality": "KNOXVILLE",
    "lat": 35.8877042,
    "lng": -83.79513539999999
  },
  {
    "name": "Travis Nathan Patrick",
    "img": "https://www.homefacts.com/images/offenders/tennessee/thumb/00544892.jpg",
    "address": "homeless",
    "locality": "KNOXVILLE",
    "lat": 35.965266,
    "lng": -83.923304
  },
  {
    "name": "Truax Chad Michael",
    "img": "https://www.homefacts.com/images/offenders/tennessee/thumb/SO016342.jpg",
    "address": "9107 PICKENS GAP ROAD",
    "locality": "KNOXVILLE",
    "lat": 35.8740378,
    "lng": -83.8163592
  },
  {
    "name": "Trueblood Matthew S",
    "img": "https://www.homefacts.com/images/offenders/tennessee/thumb/00333897.jpg",
    "address": "7619 MISTY VIEW WAY",
    "locality": "KNOXVILLE",
    "lat": 35.9488021,
    "lng": -84.0742724
  },
  {
    "name": "Tullock Michael Gene",
    "img": "https://www.homefacts.com/images/offenders/tennessee/thumb/00374896.jpg",
    "address": "5001 MALONEYVILLE RD",
    "locality": "KNOXVILLE",
    "lat": 36.0853331,
    "lng": -83.84035039999999
  },
  {
    "name": "Turner Marvin Keith",
    "img": "https://www.homefacts.com/images/offenders/tennessee/thumb/00637037.jpg",
    "address": "503 W INSKIP DRIVE",
    "locality": "KNOXVILLE",
    "lat": 36.0050433,
    "lng": -83.9718011
  },
  {
    "name": "Turner Scott Lee",
    "img": "https://www.homefacts.com/images/offenders/tennessee/thumb/00210266.jpg",
    "address": "homeless",
    "locality": "KNOXVILLE",
    "lat": 35.965266,
    "lng": -83.923304
  },
  {
    "name": "Tyler Nicholas",
    "img": "https://www.homefacts.com/images/offenders/tennessee/thumb/00602971.jpg",
    "address": "123 INGERSOLL AVE",
    "locality": "KNOXVILLE",
    "lat": 35.9291269,
    "lng": -83.9122087
  },
  {
    "name": "Underwood Roy Gilbert",
    "img": "https://www.homefacts.com/images/offenders/tennessee/thumb/00092464.jpg",
    "address": "5001 MALONEYVILLE ROAD",
    "locality": "KNOXVILLE",
    "lat": 36.0853331,
    "lng": -83.84035039999999
  },
  {
    "name": "Valdivia Jason Leonard",
    "img": "https://www.homefacts.com/images/offenders/tennessee/thumb/SO016874.jpg",
    "address": "800 MARKET ST 320 US MARSHAL C",
    "locality": "KNOXVILLE",
    "lat": 35.965266,
    "lng": -83.923304
  },
  {
    "name": "Valentine Cary Stephen",
    "img": "https://www.homefacts.com/images/offenders/tennessee/thumb/00236314.jpg",
    "address": "5540 ELAINE LANE",
    "locality": "KNOXVILLE",
    "lat": 36.0956706,
    "lng": -83.89442509999999
  },
  {
    "name": "Varner Chelsea Renee",
    "img": "https://www.homefacts.com/images/offenders/tennessee/thumb/00482153.jpg",
    "address": "3216 CLEAR SPRINGS RD",
    "locality": "MASCOT",
    "lat": 36.0938561,
    "lng": -83.71910489999999
  },
  {
    "name": "Vaulton Dennis Wayne",
    "img": "https://www.homefacts.com/images/offenders/tennessee/thumb/00102528.jpg",
    "address": "7927 BELLS CAMPGROUND RD",
    "locality": "POWELL",
    "lat": 36.033316,
    "lng": -84.0564179
  },
  {
    "name": "Velez James Anibol",
    "img": "https://www.homefacts.com/images/offenders/tennessee/thumb/00455187.jpg",
    "address": "5001 MELONEYVILLE RD",
    "locality": "KNOXVILLE",
    "lat": 36.0853331,
    "lng": -83.84035039999999
  },
  {
    "name": "Vergara Juan Ramon",
    "img": "https://www.homefacts.com/images/offenders/tennessee/thumb/00506799.jpg",
    "address": "324 PROSPERITY DR",
    "locality": "KNOXVILLE",
    "lat": 35.9232411,
    "lng": -84.0793813
  },
  {
    "name": "Walker James David",
    "img": "https://www.homefacts.com/images/offenders/tennessee/thumb/00332967.jpg",
    "address": "722 WEST JOYCE LANE",
    "locality": "POWELL",
    "lat": 36.0039762,
    "lng": -84.0624353
  },
  {
    "name": "Walker Richard Jerome",
    "img": "https://www.homefacts.com/images/offenders/tennessee/thumb/00131336.jpg",
    "address": "UNKNOWN",
    "locality": "KNOXVILLE",
    "lat": 35.965266,
    "lng": -83.923304
  },
  {
    "name": "Wallace Liston Bass",
    "img": "https://www.homefacts.com/images/offenders/tennessee/thumb/00093373.jpg",
    "address": "2324 LINDEN AVE",
    "locality": "KNOXVILLE",
    "lat": 35.9814089,
    "lng": -83.8983227
  },
  {
    "name": "Ward Billy Joe",
    "img": "https://www.homefacts.com/images/offenders/tennessee/thumb/00370185.jpg",
    "address": "5001 MALONEYVILLE RD",
    "locality": "KNOXVILLE",
    "lat": 36.0853331,
    "lng": -83.84035039999999
  },
  {
    "name": "Ward Michael Blain",
    "img": "https://www.homefacts.com/images/offenders/tennessee/thumb/00353645.jpg",
    "address": "2215 LINCOLN ST",
    "locality": "KNOXVILLE",
    "lat": 35.9577126,
    "lng": -83.901585
  },
  {
    "name": "Warwick Michael W",
    "img": "https://www.homefacts.com/images/offenders/tennessee/thumb/00603261.jpg",
    "address": "210 DOUGHTY DR",
    "locality": "KNOXVILLE",
    "lat": 36.0349405,
    "lng": -83.924399
  },
  {
    "name": "Waters Donte Reginald",
    "img": "https://www.homefacts.com/images/offenders/tennessee/thumb/00584893.jpg",
    "address": "154 SKYLINE LANE",
    "locality": "POWELL",
    "lat": 36.0449269,
    "lng": -84.13241780000001
  },
  {
    "name": "Watson Leone Antowne",
    "img": "https://www.homefacts.com/images/offenders/tennessee/thumb/SO019115.jpg",
    "address": "1029 MORROW RD",
    "locality": "KNOXVILLE",
    "lat": 35.9382976,
    "lng": -84.0653653
  },
  {
    "name": "Wayman Billy Joe",
    "img": "https://www.homefacts.com/images/offenders/tennessee/thumb/00158320.jpg",
    "address": "6573 MILLERTOWN PIKE",
    "locality": "KNOXVILLE",
    "lat": 36.0435564,
    "lng": -83.8417649
  },
  {
    "name": "Weaver Brian James",
    "img": "https://www.homefacts.com/images/offenders/tennessee/thumb/00426538.jpg",
    "address": "1200 CEDAR LANE",
    "locality": "KNOXVILLE",
    "lat": 36.0237453,
    "lng": -83.955967
  },
  {
    "name": "Weaver Dennis James",
    "img": "https://www.homefacts.com/images/offenders/tennessee/thumb/00588986.jpg",
    "address": "5937 EDMONDSON LANE",
    "locality": "KNOXVILLE",
    "lat": 36.0525015,
    "lng": -83.8684086
  },
  {
    "name": "Weaver James Alexander",
    "img": "https://www.homefacts.com/images/offenders/tennessee/thumb/00535623.jpg",
    "address": "homeless",
    "locality": "KNOXVILLE",
    "lat": 35.965266,
    "lng": -83.923304
  },
  {
    "name": "Weaver Kimmy Leshaun",
    "img": "https://www.homefacts.com/images/offenders/tennessee/thumb/00621441.jpg",
    "address": "homeless",
    "locality": "KNOXVILLE",
    "lat": 35.965266,
    "lng": -83.923304
  },
  {
    "name": "Webb Jason Destry",
    "img": "https://www.homefacts.com/images/offenders/tennessee/thumb/00585515.jpg",
    "address": "7708 WESTACRES DRIVE",
    "locality": "KNOXVILLE",
    "lat": 35.91113199999999,
    "lng": -84.03546999999999
  },
  {
    "name": "Webb Keith Edward",
    "img": "https://www.homefacts.com/images/offenders/tennessee/thumb/00346613.jpg",
    "address": "800 MARKET ST",
    "locality": "KNOXVILLE",
    "lat": 35.9620244,
    "lng": -83.9170743
  },
  {
    "name": "Webster Chris Alan",
    "img": "https://www.homefacts.com/images/offenders/tennessee/thumb/00518938.jpg",
    "address": "3302 WEAVER CEMETERY RD",
    "locality": "KNOXVILLE",
    "lat": 36.1031702,
    "lng": -83.9660294
  },
  {
    "name": "Weeks Jaime Eugene",
    "img": "https://www.homefacts.com/images/offenders/tennessee/thumb/00578472.jpg",
    "address": "2333 GREENFIELD LANE",
    "locality": "KNOXVILLE",
    "lat": 35.9994516,
    "lng": -83.9077772
  },
  {
    "name": "West Gary Wade",
    "img": "https://www.homefacts.com/images/offenders/tennessee/thumb/00516891.jpg",
    "address": "450 OLD EDGEMOOR LANE 38",
    "locality": "POWELL",
    "lat": 36.0339662,
    "lng": -84.1311258
  },
  {
    "name": "Wetherington Raymond Lee",
    "img": "https://www.homefacts.com/images/offenders/tennessee/thumb/00279087.jpg",
    "address": "7302 MARASHI RD",
    "locality": "KNOXVILLE",
    "lat": 35.9048755,
    "lng": -83.8683135
  },
  {
    "name": "Whisnant Douglas Vernon",
    "img": "https://www.homefacts.com/images/offenders/tennessee/thumb/00288270.jpg",
    "address": "800 MARKET ST",
    "locality": "KNOXVILLE",
    "lat": 35.9620244,
    "lng": -83.9170743
  },
  {
    "name": "White Joseph David",
    "img": "https://www.homefacts.com/images/offenders/tennessee/thumb/SO015059.jpg",
    "address": "7005 WASHINGTON PIKE UNIT B",
    "locality": "CORRYTON",
    "lat": 36.0787038,
    "lng": -83.8289351
  },
  {
    "name": "White Steven Allen",
    "img": "https://www.homefacts.com/images/offenders/tennessee/thumb/00458735.jpg",
    "address": "6413 MONT RICHER AVE",
    "locality": "KNOXVILLE",
    "lat": 36.0596473,
    "lng": -83.8992099
  },
  {
    "name": "White William Arthur",
    "img": "https://www.homefacts.com/images/offenders/tennessee/thumb/00490342.jpg",
    "address": "homeless",
    "locality": "KNOXVILLE",
    "lat": 35.965266,
    "lng": -83.923304
  },
  {
    "name": "Whited Thomas William",
    "img": "https://www.homefacts.com/images/offenders/tennessee/thumb/00525583.jpg",
    "address": "226 SKYLINE LANE",
    "locality": "POWELL",
    "lat": 36.0461279,
    "lng": -84.13538179999999
  },
  {
    "name": "Whitehead Joshua",
    "img": "https://www.homefacts.com/images/offenders/tennessee/thumb/00375450.jpg",
    "address": "5001 MALONEYVILLE RD",
    "locality": "KNOXVILLE",
    "lat": 36.0853331,
    "lng": -83.84035039999999
  },
  {
    "name": "Whitlock Anthony Teldon",
    "img": "https://www.homefacts.com/images/offenders/tennessee/thumb/00549443.jpg",
    "address": "800MARKET ST SUITE 23107 FEDER",
    "locality": "KNOXVILLE",
    "lat": 35.965266,
    "lng": -83.923304
  },
  {
    "name": "Whitt Rayburn Lee",
    "img": "https://www.homefacts.com/images/offenders/tennessee/thumb/00278797.jpg",
    "address": "8512 3 POINT RD",
    "locality": "KNOXVILLE",
    "lat": 36.0631844,
    "lng": -83.77902689999999
  },
  {
    "name": "Wiggins Christopher Harold",
    "img": "https://www.homefacts.com/images/offenders/tennessee/thumb/00281682.jpg",
    "address": "1308 HUNTINGTON RD",
    "locality": "KNOXVILLE",
    "lat": 35.8979208,
    "lng": -84.030407
  },
  {
    "name": "Wilburn Chaz Damone",
    "img": "https://www.homefacts.com/images/offenders/tennessee/thumb/00379559.jpg",
    "address": "homeless",
    "locality": "KNOXVILLE",
    "lat": 35.965266,
    "lng": -83.923304
  },
  {
    "name": "Williams Daniel Lynn",
    "img": "https://www.homefacts.com/images/offenders/tennessee/thumb/00467989.jpg",
    "address": "800 MARKET STREET",
    "locality": "KNOXVILLE",
    "lat": 35.9620244,
    "lng": -83.9170743
  },
  {
    "name": "Williams Joshua",
    "img": "https://www.homefacts.com/images/offenders/tennessee/thumb/00651562.jpg",
    "address": "homeless",
    "locality": "KNOXVILLE",
    "lat": 35.965266,
    "lng": -83.923304
  },
  {
    "name": "Williams Kiwann Antonious",
    "img": "https://www.homefacts.com/images/offenders/tennessee/thumb/00503887.jpg",
    "address": "6120 PERRY RD",
    "locality": "KNOXVILLE",
    "lat": 35.9913293,
    "lng": -83.8064225
  },
  {
    "name": "Wilson Jeffery Duane",
    "img": "https://www.homefacts.com/images/offenders/tennessee/thumb/00515535.jpg",
    "address": "4105 TAZEWELL PIKE",
    "locality": "KNOXVILLE",
    "lat": 36.0394906,
    "lng": -83.91175779999999
  },
  {
    "name": "Wilson Kenneth Randall",
    "img": "https://www.homefacts.com/images/offenders/tennessee/thumb/00166160.jpg",
    "address": "1012 FAIR DR",
    "locality": "KNOXVILLE",
    "lat": 36.0206985,
    "lng": -83.95660860000001
  },
  {
    "name": "Wilson Randy Alan",
    "img": "https://www.homefacts.com/images/offenders/tennessee/thumb/00483532.jpg",
    "address": "45820 YORK RD",
    "locality": "KNOXVILLE",
    "lat": 36.1177855,
    "lng": -83.9533779
  },
  {
    "name": "Wilson Rodney Dewayne",
    "img": "https://www.homefacts.com/images/offenders/tennessee/thumb/00616479.jpg",
    "address": "homeless",
    "locality": "KNOXVILLE",
    "lat": 35.965266,
    "lng": -83.923304
  },
  {
    "name": "Winkle Karley",
    "img": "https://www.homefacts.com/images/offenders/tennessee/thumb/00591439.jpg",
    "address": "9137 CHAPMAN HWY",
    "locality": "KNOXVILLE",
    "lat": 35.8863955,
    "lng": -83.7956768
  },
  {
    "name": "Winnie Mark James",
    "img": "https://www.homefacts.com/images/offenders/tennessee/thumb/00660032.jpg",
    "address": "homeless",
    "locality": "KNOXVILLE",
    "lat": 35.965266,
    "lng": -83.923304
  },
  {
    "name": "Winston Shelverton Dewayne",
    "img": "https://www.homefacts.com/images/offenders/tennessee/thumb/00350939.jpg",
    "address": "1500 N CHERRY ST RM 318",
    "locality": "KNOXVILLE",
    "lat": 35.9934504,
    "lng": -83.9007496
  },
  {
    "name": "Wlazlo Mitchell",
    "img": "https://www.homefacts.com/images/offenders/tennessee/thumb/00345850.jpg",
    "address": "homeless",
    "locality": "KNOXVILLE",
    "lat": 35.965266,
    "lng": -83.923304
  },
  {
    "name": "Wolfenbarger Logan",
    "img": "https://www.homefacts.com/images/offenders/tennessee/thumb/00603819.jpg",
    "address": "3302 CUNNINGHAM ROAD",
    "locality": "KNOXVILLE",
    "lat": 36.0692045,
    "lng": -83.94273179999999
  },
  {
    "name": "Wood Robert Randy",
    "img": "https://www.homefacts.com/images/offenders/tennessee/thumb/SO016068.jpg",
    "address": "2235 FAIR DRIVE",
    "locality": "KNOXVILLE",
    "lat": 36.029799,
    "lng": -83.9391773
  },
  {
    "name": "Woodall Doyle Deidrick",
    "img": "https://www.homefacts.com/images/offenders/tennessee/thumb/00569782.jpg",
    "address": "312 SHASTA DRIVE",
    "locality": "KNOXVILLE",
    "lat": 36.0141183,
    "lng": -83.9663336
  },
  {
    "name": "Woods Jason",
    "img": "https://www.homefacts.com/images/offenders/tennessee/thumb/SO017613.jpg",
    "address": "1609 RIVERS SHORE",
    "locality": "KNOXVILLE",
    "lat": 35.9560778,
    "lng": -83.8632674
  },
  {
    "name": "Woods Kalonji Khafre",
    "img": "https://www.homefacts.com/images/offenders/tennessee/thumb/00475246.jpg",
    "address": "1209 CEDAR LANE 621",
    "locality": "KNOXVILLE",
    "lat": 36.0259074,
    "lng": -83.9562455
  },
  {
    "name": "Woods Mary Lisa",
    "img": "https://www.homefacts.com/images/offenders/tennessee/thumb/00575803.jpg",
    "address": "3320 ROBERTS ROAD",
    "locality": "CORRYTON",
    "lat": 36.0818683,
    "lng": -83.7817802
  },
  {
    "name": "Workman Timothy Wayne",
    "img": "https://www.homefacts.com/images/offenders/tennessee/thumb/00298705.jpg",
    "address": "3807 VALLEY VIEW DR",
    "locality": "KNOXVILLE",
    "lat": 36.0212241,
    "lng": -83.9014404
  },
  {
    "name": "Wright Ronald Lee",
    "img": "https://www.homefacts.com/images/offenders/tennessee/thumb/SO014366.jpg",
    "address": "7729 E EMORY RD",
    "locality": "CORRYTON",
    "lat": 36.1253674,
    "lng": -83.84100149999999
  },
  {
    "name": "Wyatt Ian Christopher",
    "img": "https://www.homefacts.com/images/offenders/tennessee/thumb/SO018795.jpg",
    "address": "1732 E BULLRUN VALLEY DR",
    "locality": "POWELL",
    "lat": 36.0995896,
    "lng": -84.0068679
  },
  {
    "name": "Wynkoop Daniel Wayne",
    "img": "https://www.homefacts.com/images/offenders/tennessee/thumb/00514039.jpg",
    "address": "2116 VERMONT AVENUE",
    "locality": "KNOXVILLE",
    "lat": 35.9736823,
    "lng": -83.9545799
  },
  {
    "name": "Wyse Edward R",
    "img": "https://www.homefacts.com/images/offenders/tennessee/thumb/00602802.jpg",
    "address": "2316 MIDWAY RD",
    "locality": "KNOXVILLE",
    "lat": 35.9674723,
    "lng": -83.68733
  },
  {
    "name": "Yahrmarkt Victor Eugene",
    "img": "https://www.homefacts.com/images/offenders/tennessee/thumb/SO003834.jpg",
    "address": "822 WEST OLDHAM AVE",
    "locality": "KNOXVILLE",
    "lat": 35.9798342,
    "lng": -83.9406418
  },
  {
    "name": "Young Joshua Taylor",
    "img": "https://www.homefacts.com/images/offenders/tennessee/thumb/00637815.jpg",
    "address": "8550 OLD JACKSBORO ROAD",
    "locality": "KNOXVILLE",
    "lat": 36.10579430000001,
    "lng": -83.9685928
  },
  {
    "name": "Young Tyrea",
    "img": "https://www.homefacts.com/images/offenders/tennessee/thumb/SO015396.jpg",
    "address": "homeless",
    "locality": "KNOXVILLE",
    "lat": 35.965266,
    "lng": -83.923304
  },
  {
    "name": "Zamora Juan Francisco",
    "img": "https://www.homefacts.com/images/offenders/tennessee/thumb/00510750.jpg",
    "address": "INS CUSTODY TO BE DEPORTED",
    "locality": "KNOXVILLE",
    "lat": 35.965266,
    "lng": -83.923304
  },
  {
    "name": "Zuniga-hernandez Danny",
    "img": "https://www.homefacts.com/images/offenders/tennessee/thumb/SO019592.jpg",
    "address": "5001 MALONEYVILLE RD",
    "locality": "KNOXVILLE",
    "lat": 36.0853331,
    "lng": -83.84035039999999
  }
]

